{
    "Chapelle_Saint-Jean_d'Amboise\n": {
        "address": "Chapelle+Saint+Jean+d'Amboise\n",
        "latlng": "47.4216, 0.9943"
    },
    "Chapelle_Saint-Antoine_(Chastel-sur-Murat)\n": {
        "address": "Chapelle+Saint+Antoine+(Chastel+sur+Murat)\n",
        "latlng": "45.1233, 2.8554"
    },
    "Chapelle_Saint-Germain_(Plogastel-Saint-Germain)\n": {
        "address": "Chapelle+Saint+Germain+(Plogastel+Saint+Germain)\n",
        "latlng": "47.96763611111111, -4.248405555555555"
    },
    "Chapelle_Notre-Dame_du_Kreisker\n": {
        "address": "Chapelle+Notre+Dame+du+Kreisker\n",
        "latlng": "48.68277777777777, -3.986666666666667"
    },
    "Chapelle_Saint-Fiacre_du_Faou\u00ebt\n": {
        "address": "Chapelle+Saint+Fiacre+du+Faou\u00ebt\n",
        "latlng": "48.0141, -3.4868194444444445"
    },
    "Chapelle_Notre-Dame-de-l'Orme\n": {
        "address": "Chapelle+Notre+Dame+de+l'Orme\n",
        "latlng": "46.09641388888889, 5.3152"
    },
    "Chapelle_de_la_Visitation_(Paray-le-Monial)\n": {
        "address": "Chapelle+de+la+Visitation+(Paray+le+Monial)\n",
        "latlng": "46.451061111111116, 4.1224"
    },
    "Chapelle_Sainte-Catherine_de_Jarnioux\n": {
        "address": "Chapelle+Sainte+Catherine+de+Jarnioux\n",
        "latlng": "45.96460555555556, 4.627969444444445"
    },
    "Chapelle_Sainte-C\u00e9cile_de_Fl\u00e9e\n": {
        "address": "Chapelle+Sainte+C\u00e9cile+de+Fl\u00e9e\n",
        "latlng": "47.710300000000004, 0.47500000000000003"
    },
    "Sigismundkapelle_(Oberwittighausen)\n": {
        "address": "Sigismundkapelle+(Oberwittighausen)\n",
        "latlng": "49.62600277777778, 9.848261111111112"
    },
    "Chapelle_Saint-Christophe-et-Saint-Jacques_d'Auvillers\n": {
        "address": "Chapelle+Saint+Christophe+et+Saint+Jacques+d'Auvillers\n",
        "latlng": "49.356725000000004, 2.3948916666666666"
    },
    "Chapelle_de_l'H\u00f4tel-Dieu_de_Lyon\n": {
        "address": "Chapelle+de+l'H\u00f4tel+Dieu+de+Lyon\n",
        "latlng": "45.7592, 4.8361472222222215"
    },
    "Chapelle_Sainte-Marie-du-Menez-Hom\n": {
        "address": "Chapelle+Sainte+Marie+du+Menez+Hom\n",
        "latlng": "48.2028, -4.234861111111111"
    },
    "Chapelle_Notre-Dame_de_Charn\u00e9_(Ern\u00e9e)\n": {
        "address": "Chapelle+Notre+Dame+de+Charn\u00e9+(Ern\u00e9e)\n",
        "latlng": "48.296930555555555, -0.9187805555555555"
    },
    "Chapelle_Sainte-Barbe_du_Faou\u00ebt\n": {
        "address": "Chapelle+Sainte+Barbe+du+Faou\u00ebt\n",
        "latlng": "48.0424, -3.4798694444444447"
    },
    "Chapelle_Saint-Julien_de_Sal\u00e9chan\n": {
        "address": "Chapelle+Saint+Julien+de+Sal\u00e9chan\n",
        "latlng": "42.955600000000004, 0.6345833333333333"
    },
    "Chapelle_Notre-Dame_de_l'Esp\u00e9rance,_La_Rochelle\n": {
        "address": "Chapelle+Notre+Dame+de+l'Esp\u00e9rance,+La+Rochelle\n",
        "latlng": "46.1608, -1.1529805555555555"
    },
    "Chapelle_Notre-Dame-de-la-Clart\u00e9_de_Perros-Guirec\n": {
        "address": "Chapelle+Notre+Dame+de+la+Clart\u00e9+de+Perros+Guirec\n",
        "latlng": "48.818200000000004, -3.4734611111111113"
    },
    "Chapelle_Notre-Dame_de_Heigne_(Jumet)\n": {
        "address": "Chapelle+Notre+Dame+de+Heigne+(Jumet)\n",
        "latlng": "50.446, 4.4060194444444445"
    },
    "Chapelle_Saint-Sauveur_de_Cannes\n": {
        "address": "Chapelle+Saint+Sauveur+de+Cannes\n",
        "latlng": "43.5084, 7.040811111111111"
    },
    "Skulls_Chapel_in_Kudowa-Zdr\u00f3j\n": {
        "address": "Skulls+Chapel+in+Kudowa+Zdr\u00f3j\n",
        "latlng": "50.45153055555556, 16.241930555555555"
    },
    "King's_College_Chapel,_Cambridge\n": {
        "address": "King's+College+Chapel,+Cambridge\n",
        "latlng": "52.20472222222222, 0.1163888888888889"
    },
    "Capilla_del_Sagrado_Coraz\u00f3n,_Santo_Domingo\n": {
        "address": "Capilla+del+Sagrado+Coraz\u00f3n,+Santo+Domingo\n",
        "latlng": "6.474838888888889, -75.16189166666668"
    },
    "Capilla_del_Rosario,_Santo_Domingo\n": {
        "address": "Capilla+del+Rosario,+Santo+Domingo\n",
        "latlng": "19.04681388888889, -98.19811666666666"
    },
    "Church_of_El_Salvador,_\u00dabeda\n": {
        "address": "Church+of+El+Salvador,+\u00dabeda\n",
        "latlng": "38.008, -3.366416666666667"
    },
    "Capella_de_Santa_\u00c0gata,_Barcelona\n": {
        "address": "Capella+de+Santa+\u00c0gata,+Barcelona\n",
        "latlng": "41.38430555555556, 2.177361111111111"
    },
    "St_Peter-on-the-Wall,_Bradwell-on-Sea\n": {
        "address": "St+Peter+on+the+Wall,+Bradwell+on+Sea\n",
        "latlng": "51.73533888888889, 0.9399611111111111"
    },
    "Cappella_di_Sant'Agata_(Pisa)\n": {
        "address": "Cappella+di+Sant'Agata+(Pisa)\n",
        "latlng": "43.713011111111115, 10.394038888888888"
    },
    "Cappella_degli_Scrovegni_(Padua)\n": {
        "address": "Cappella+degli+Scrovegni+(Padua)\n",
        "latlng": "45.41181666666667, 11.879536111111111"
    },
    "Iglesia_de_la_Compa\u00f1\u00eda_de_Jes\u00fas,_Cochabamba\n": {
        "address": "Iglesia+de+la+Compa\u00f1\u00eda+de+Jes\u00fas,+Cochabamba\n",
        "latlng": "-17.39328611111111, -66.15772777777778"
    },
    "Iglesia_de_la_Compa\u00f1\u00eda_(Quito)\n": {
        "address": "Iglesia+de+la+Compa\u00f1\u00eda+(Quito)\n",
        "latlng": "-0.22083333333333335, -78.51388888888889"
    },
    "Igreja_de_S\u00e3o_Roque_(Lisbon)\n": {
        "address": "Igreja+de+S\u00e3o+Roque+(Lisbon)\n",
        "latlng": "38.71355555555556, -9.143372222222222"
    },
    "Church_of_El_Salvador_(B\u00e9jar)\n": {
        "address": "Church+of+El+Salvador+(B\u00e9jar)\n",
        "latlng": "40.388327777777775, -5.772769444444444"
    },
    "Church_of_Santa_Maria_del_Mar_(Valencia)\n": {
        "address": "Church+of+Santa+Maria+del+Mar+(Valencia)\n",
        "latlng": "39.460750000000004, -0.3342777777777778"
    },
    "Church_of_San_Miguel_de_los_Navarros_(Zaragoza)\n": {
        "address": "Church+of+San+Miguel+de+los+Navarros+(Zaragoza)\n",
        "latlng": "41.64956111111111, -0.8764611111111111"
    },
    "San_Lorenzo_Collegiate_Church_(Montevarchi)\n": {
        "address": "San+Lorenzo+Collegiate+Church+(Montevarchi)\n",
        "latlng": null
    },
    "Collegiata_di_San_Tommaso_(Castel_Gandolfo)\n": {
        "address": "Collegiata+di+San+Tommaso+(Castel+Gandolfo)\n",
        "latlng": "41.746269444444444, 12.65076111111111"
    },
    "\u00c9glise_Saint-Pierre_de_Mussy-sur-Seine\n": {
        "address": "\u00c9glise+Saint+Pierre+de+Mussy+sur+Seine\n",
        "latlng": "47.9789, 4.496138888888889"
    },
    "Chapel_of_Saint_Michael_the_Archangel_(La_Seo_of_Zaragoza)\n": {
        "address": "Chapel+of+Saint+Michael+the+Archangel+(La+Seo+of+Zaragoza)\n",
        "latlng": "41.655125, -0.8756777777777778"
    },
    "Church_of_Saint_Michael_the_Archangel_(Indianapolis,_Indiana)\n": {
        "address": "Church+of+Saint+Michael+the+Archangel+(Indianapolis,+Indiana)\n",
        "latlng": "39.81021666666666, -86.21554722222223"
    },
    "Military_Parish_Church_(Barcelona)\n": {
        "address": "Military+Parish+Church+(Barcelona)\n",
        "latlng": "41.38715555555555, 2.187505555555555"
    },
    "Church_of_Exaltaci\u00f3n_de_la_Santa_Cruz,_Zaragoza\n": {
        "address": "Church+of+Exaltaci\u00f3n+de+la+Santa+Cruz,+Zaragoza\n",
        "latlng": "41.65453888888889, -0.8784000000000001"
    },
    "Church_of_Our_Lady_of_the_Chapel_(Brussels)\n": {
        "address": "Church+of+Our+Lady+of+the+Chapel+(Brussels)\n",
        "latlng": "50.84152777777778, 4.351111111111111"
    },
    "Esgl\u00e9sia_de_Sant_Antoni_Abat_(Val\u00e8ncia)\n": {
        "address": "Esgl\u00e9sia+de+Sant+Antoni+Abat+(Val\u00e8ncia)\n",
        "latlng": "39.49055277777778, -0.37429166666666663"
    },
    "Esgl\u00e9sia_de_Nostra_Senyora_del_Sagrat_Cor_(Val\u00e8ncia)\n": {
        "address": "Esgl\u00e9sia+de+Nostra+Senyora+del+Sagrat+Cor+(Val\u00e8ncia)\n",
        "latlng": "39.494927777777775, -0.366125"
    },
    "Esgl\u00e9sia_de_Sant_Roc_de_Benicalap\n": {
        "address": "Esgl\u00e9sia+de+Sant+Roc+de+Benicalap\n",
        "latlng": "39.49236111111111, -0.39119444444444446"
    },
    "Esgl\u00e9sia_de_l'Assumpci\u00f3_(Ll\u00edria)\n": {
        "address": "Esgl\u00e9sia+de+l'Assumpci\u00f3+(Ll\u00edria)\n",
        "latlng": "39.625480555555555, -0.5949694444444444"
    },
    "Esgl\u00e9sia_de_Sant_Valeri_i_Sant_Vicent_M\u00e0rtir\n": {
        "address": "Esgl\u00e9sia+de+Sant+Valeri+i+Sant+Vicent+M\u00e0rtir\n",
        "latlng": "39.46253055555556, -0.3722"
    },
    "Coll\u00e9giale_Saint-Jean-Baptiste_de_Rouvres-en-Plaine\n": {
        "address": "Coll\u00e9giale+Saint+Jean+Baptiste+de+Rouvres+en+Plaine\n",
        "latlng": "47.238, 5.1406"
    },
    "Collegiate_of_Santa_Mar\u00eda_del_Mercado,_Berlanga_de_Duero\n": {
        "address": "Collegiate+of+Santa+Mar\u00eda+del+Mercado,+Berlanga+de+Duero\n",
        "latlng": "41.464733333333335, -2.861102777777778"
    },
    "St_Ninian's_Chapel,_Braemar\n": {
        "address": "St+Ninian's+Chapel,+Braemar\n",
        "latlng": "56.9921, -3.4885"
    },
    "Real_Colegiata_de_Santa_Mar\u00eda_la_Mayor,_Antequera\n": {
        "address": "Real+Colegiata+de+Santa+Mar\u00eda+la+Mayor,+Antequera\n",
        "latlng": "37.0145, -4.55615"
    },
    "Chapel_of_Mos\u00e9n_Rub\u00ed\n": {
        "address": "Chapel+of+Mos\u00e9n+Rub\u00ed\n",
        "latlng": "40.657713888888885, -4.699888888888889"
    },
    "Iglesia_Colegial_del_Divino_Salvador_(Sevilla)\n": {
        "address": "Iglesia+Colegial+del+Divino+Salvador+(Sevilla)\n",
        "latlng": "37.38997777777778, -5.992597222222222"
    },
    "Chapelle_des_Carm\u00e9lites\n": {
        "address": "Chapelle+des+Carm\u00e9lites\n",
        "latlng": "43.6075, 1.4433305555555556"
    },
    "Church_of_Virgen_de_la_Paloma_and_San_Pedro_el_Real\n": {
        "address": "Church+of+Virgen+de+la+Paloma+and+San+Pedro+el+Real\n",
        "latlng": "40.408363888888886, -3.711825"
    },
    "Church_of_San_Dionisio,_Jerez_de_la_Frontera\n": {
        "address": "Church+of+San+Dionisio,+Jerez+de+la+Frontera\n",
        "latlng": "36.68348333333333, -6.138294444444445"
    },
    "Church_of_San_Miguel_Arc\u00e1ngel_(Villanueva_de_C\u00f3rdoba)\n": {
        "address": "Church+of+San+Miguel+Arc\u00e1ngel+(Villanueva+de+C\u00f3rdoba)\n",
        "latlng": null
    },
    "Chapelle_Saint-Gon\u00e9ry\n": {
        "address": "Chapelle+Saint+Gon\u00e9ry\n",
        "latlng": "48.8415, -3.228438888888889"
    },
    "Church_of_San_Felipe_y_Santiago_el_Menor_(Zaragoza)\n": {
        "address": "Church+of+San+Felipe+y+Santiago+el+Menor+(Zaragoza)\n",
        "latlng": "41.65456944444444, -0.8824555555555555"
    },
    "Church_of_the_Tabernacle,_Seville\n": {
        "address": "Church+of+the+Tabernacle,+Seville\n",
        "latlng": "37.38630833333333, -5.993858333333334"
    },
    "Church_of_Nuestra_Se\u00f1ora_de_Montserrat,_Madrid\n": {
        "address": "Church+of+Nuestra+Se\u00f1ora+de+Montserrat,+Madrid\n",
        "latlng": "40.42761944444444, -3.7064944444444445"
    },
    "Collegiate_of_Santa_Mar\u00eda,_A\u00ednsa\n": {
        "address": "Collegiate+of+Santa+Mar\u00eda,+A\u00ednsa\n",
        "latlng": "42.41681944444444, 0.1391111111111111"
    },
    "Iglesia_de_San_Francisco_de_As\u00eds,_Santa_Cruz_de_Tenerife\n": {
        "address": "Iglesia+de+San+Francisco+de+As\u00eds,+Santa+Cruz+de+Tenerife\n",
        "latlng": "28.46795, -16.249466666666667"
    },
    "Church_of_San_Pablo,_Zaragoza\n": {
        "address": "Church+of+San+Pablo,+Zaragoza\n",
        "latlng": "41.656083333333335, -0.8861111111111111"
    },
    "Capilla_de_los_V\u00e9lez\n": {
        "address": "Capilla+de+los+V\u00e9lez\n",
        "latlng": "37.984030555555556, -1.1281916666666667"
    },
    "Santuario_de_los_Gitanos,_Sevilla\n": {
        "address": "Santuario+de+los+Gitanos,+Sevilla\n",
        "latlng": "37.39500833333333, -5.983905555555555"
    },
    "Collegiate_church_of_Covarrubias\n": {
        "address": "Collegiate+church+of+Covarrubias\n",
        "latlng": "42.05806944444444, -3.518761111111111"
    },
    "San_Giuliano_(Castiglion_Fiorentino)\n": {
        "address": "San+Giuliano+(Castiglion+Fiorentino)\n",
        "latlng": "43.34165, 11.92535"
    },
    "Collegiata_dei_Santi_Lorenzo_e_Leonardo\n": {
        "address": "Collegiata+dei+Santi+Lorenzo+e+Leonardo\n",
        "latlng": "43.60570277777778, 10.971577777777778"
    },
    "Real_Colegiata_de_San_Hip\u00f3lito,_C\u00f3rdoba\n": {
        "address": "Real+Colegiata+de+San+Hip\u00f3lito,+C\u00f3rdoba\n",
        "latlng": "37.885802777777776, -4.782836111111111"
    },
    "Coll\u00e9giale_Notre-Dame_et_Saint-Laurent_d'Eu\n": {
        "address": "Coll\u00e9giale+Notre+Dame+et+Saint+Laurent+d'Eu\n",
        "latlng": "50.0488, 1.4196305555555557"
    },
    "Collegiata_di_San_Quirico_d'Orcia\n": {
        "address": "Collegiata+di+San+Quirico+d'Orcia\n",
        "latlng": "43.06048055555555, 11.603069444444444"
    },
    "Chapelle_de_Perguet\n": {
        "address": "Chapelle+de+Perguet\n",
        "latlng": "47.87710833333333, -4.047297222222222"
    },
    "Gibside_Chapel\n": {
        "address": "Gibside+Chapel\n",
        "latlng": "54.9187, -1.7334"
    },
    "Pilgrimage_Church_of_Saint_John_of_Nepomuk\n": {
        "address": "Pilgrimage+Church+of+Saint+John+of+Nepomuk\n",
        "latlng": "49.580000000000005, 15.94193888888889"
    },
    "Basilika_Mari\u00e4_Geburt,_Frauenkirchen\n": {
        "address": "Basilika+Mari\u00e4+Geburt,+Frauenkirchen\n",
        "latlng": "47.8361, 16.928800000000003"
    },
    "Real_Santuario_del_Sant\u00edsimo_Cristo\n": {
        "address": "Real+Santuario+del+Sant\u00edsimo+Cristo\n",
        "latlng": "28.49361111111111, -16.3125"
    },
    "Kermaria-an-Isquit\n": {
        "address": "Kermaria+an+Isquit\n",
        "latlng": "48.684999999999995, -2.9757694444444445"
    },
    "Coll\u00e9giale_Saint-Barth\u00e9lemy_(Li\u00e8ge)\n": {
        "address": "Coll\u00e9giale+Saint+Barth\u00e9lemy+(Li\u00e8ge)\n",
        "latlng": "50.647780555555556, 5.5833305555555555"
    },
    "Collegiate_of_Santa_Juliana,_Santillana_del_Mar\n": {
        "address": "Collegiate+of+Santa+Juliana,+Santillana+del+Mar\n",
        "latlng": "43.39221666666666, -4.106005555555555"
    },
    "Sant_Joan_de_Caselles\n": {
        "address": "Sant+Joan+de+Caselles\n",
        "latlng": "42.57083333333334, 1.607777777777778"
    },
    "Coll\u00e9giale_Saint-Thi\u00e9baut_de_Thann\n": {
        "address": "Coll\u00e9giale+Saint+Thi\u00e9baut+de+Thann\n",
        "latlng": "47.81083333333333, 7.101666666666667"
    },
    "Colleoni_chapel_in_Bergamo\n": {
        "address": "Colleoni+chapel+in+Bergamo\n",
        "latlng": null
    },
    "Italian_Chapel\n": {
        "address": "Italian+Chapel\n",
        "latlng": "58.8899, -2.889561111111111"
    },
    "Cappella_Bartolini_Salimbeni\n": {
        "address": "Cappella+Bartolini+Salimbeni\n",
        "latlng": "43.77027777777778, 11.250833333333333"
    },
    "Santa_Maria_de_la_Natividad_photos_from_Semana_i_2016\n": {
        "address": "Santa+Maria+de+la+Natividad+photos+from+Semana+i+2016\n",
        "latlng": null
    },
    "Odda's_Chapel\n": {
        "address": "Odda's+Chapel\n",
        "latlng": "51.9669, -2.1919388888888887"
    },
    "Burgersaalkirche_(Munchen)\n": {
        "address": "B\u00fcrgersaalkirche+(M\u00fcnchen)\n",
        "latlng": "48.13902222222222, 11.568255555555556"
    },
    "Iglesia_de_Santa_Mar\u00eda_de_la_Alhambra\n": {
        "address": "Iglesia+de+Santa+Mar\u00eda+de+la+Alhambra\n",
        "latlng": "37.17635555555555, -3.5893055555555557"
    },
    "Magdalenenklause\n": {
        "address": "Magdalenenklause\n",
        "latlng": "48.16, 11.5"
    },
    "Chiesa_dei_Gesuiti_(Venice)\n": {
        "address": "Chiesa+dei+Gesuiti+(Venice)\n",
        "latlng": "45.44333333333333, 12.339166666666667"
    },
    "Saint_Vincent_De_Paul_Parish_Church_of_Manila\n": {
        "address": "Saint+Vincent+De+Paul+Parish+Church+of+Manila\n",
        "latlng": null
    },
    "Jesuit_Church,_Vienna\n": {
        "address": "Jesuit+Church,+Vienna\n",
        "latlng": "48.20888888888889, 16.377222222222223"
    },
    "Jesuitenkirche_(Heidelberg)\n": {
        "address": "Jesuitenkirche+(Heidelberg)\n",
        "latlng": "49.4111, 8.707780555555555"
    },
    "Basilica_of_San_Juan_de_Dios,_Granada\n": {
        "address": "Basilica+of+San+Juan+de+Dios,+Granada\n",
        "latlng": "37.180252777777774, -3.6033500000000003"
    },
    "Bergkirche_Laudenbach\n": {
        "address": "Bergkirche+Laudenbach\n",
        "latlng": "49.456300000000006, 9.919738888888888"
    },
    "Collegiata_di_San_Martino\n": {
        "address": "Collegiata+di+San+Martino\n",
        "latlng": "41.28472222222222, 14.559444444444445"
    },
    "Colegiata_de_Medinaceli\n": {
        "address": "Colegiata+de+Medinaceli\n",
        "latlng": "41.17180277777778, -2.434444444444445"
    },
    "Santi_Michele_e_Magno\n": {
        "address": "Santi+Michele+e+Magno\n",
        "latlng": "41.90142222222222, 12.458872222222222"
    },
    "San_Marco_Evangelista_(Chiavris,_Udine)\n": {
        "address": "San+Marco+Evangelista+(Chiavris,+Udine)\n",
        "latlng": "46.07668055555556, 13.235275"
    },
    "Church_of_San_Marcos,_Madrid\n": {
        "address": "Church+of+San+Marcos,+Madrid\n",
        "latlng": "40.42483055555555, -3.711186111111111"
    },
    "Escoles_Pies_de_Val\u00e8ncia\n": {
        "address": "Escoles+Pies+de+Val\u00e8ncia\n",
        "latlng": "39.47380555555556, -0.3818055555555555"
    },
    "Sigismund_Chapel\n": {
        "address": "Sigismund+Chapel\n",
        "latlng": "50.05447777777778, 19.93558888888889"
    },
    "Church_of_El_Salvador,_Teruel\n": {
        "address": "Church+of+El+Salvador,+Teruel\n",
        "latlng": "40.34200277777778, -1.1078222222222223"
    },
    "Santu\u00e1rio_de_S\u00e3o_Torcato\n": {
        "address": "Santu\u00e1rio+de+S\u00e3o+Torcato\n",
        "latlng": "41.481772222222226, -8.258663888888888"
    },
    "Santuario_de_San_Pedro_Bautista\n": {
        "address": "Santuario+de+San+Pedro+Bautista\n",
        "latlng": null
    },
    "Santo_Ni\u00f1o_de_Pandacan_Parish_Church\n": {
        "address": "Santo+Ni\u00f1o+de+Pandacan+Parish+Church\n",
        "latlng": "14.59303888888889, 121.00416111111112"
    },
    "San_Martino_(Tirano)\n": {
        "address": "San+Martino+(Tirano)\n",
        "latlng": "46.215650000000004, 10.174869444444443"
    },
    "Church_of_San_Francisco,_Teruel\n": {
        "address": "Church+of+San+Francisco,+Teruel\n",
        "latlng": "40.34450555555556, -1.1122750000000001"
    },
    "Church_of_San_Pedro,_Pampliega\n": {
        "address": "Church+of+San+Pedro,+Pampliega\n",
        "latlng": "42.20622222222222, -3.986975"
    },
    "Sistine_Chapel\n": {
        "address": "Sistine+Chapel\n",
        "latlng": "41.90295555555556, 12.454433333333332"
    },
    "Church_of_Santo_Tom\u00e1s_de_Aquino,_Zaragoza\n": {
        "address": "Church+of+Santo+Tom\u00e1s+de+Aquino,+Zaragoza\n",
        "latlng": "41.65475277777777, -0.8845027777777777"
    },
    "Iglesia_de_Santa_Ana_(Panama_City)\n": {
        "address": "Iglesia+de+Santa+Ana+(Panama+City)\n",
        "latlng": "8.954019444444445, -79.5391"
    },
    "Nostra_Signora_della_Misericordia_(Campo_Ligure)\n": {
        "address": "Nostra+Signora+della+Misericordia+(Campo+Ligure)\n",
        "latlng": null
    },
    "Klosterkirche_Andechs\n": {
        "address": "Klosterkirche+Andechs\n",
        "latlng": "47.97432777777778, 11.182525"
    },
    "Herrgottskirche_Creglingen\n": {
        "address": "Herrgottskirche+Creglingen\n",
        "latlng": "49.45823611111111, 10.031708333333334"
    },
    "Holy_Cross_Parish_Church_(Tejeros,_Makati_City)\n": {
        "address": "Holy+Cross+Parish+Church+(Tejeros,+Makati+City)\n",
        "latlng": "14.572905555555556, 121.01332777777777"
    },
    "Templo_del_Hospicio,_Cochabamba\n": {
        "address": "Templo+del+Hospicio,+Cochabamba\n",
        "latlng": "-17.388997222222223, -66.15574166666667"
    },
    "Templo_de_San_Francisco,_Cochabamba\n": {
        "address": "Templo+de+San+Francisco,+Cochabamba\n",
        "latlng": "-17.39241388888889, -66.15544166666668"
    },
    "Saint_Aloysius_Church_(Bowling_Green,_Ohio)\n": {
        "address": "Saint+Aloysius+Church+(Bowling+Green,+Ohio)\n",
        "latlng": null
    },
    "Greek_Catholic_wooden_church_in_\u0218urde\u0219ti,_Maramure\u0219\n": {
        "address": "Greek+Catholic+wooden+church+in+\u0218urde\u0219ti,+Maramure\u0219\n",
        "latlng": "47.596983333333334, 23.764494444444445"
    },
    "Dominus_Flevit_Church\n": {
        "address": "Dominus+Flevit+Church\n",
        "latlng": "31.777977777777778, 35.24189444444445"
    },
    "Santu\u00e1rio_da_Penha\n": {
        "address": "Santu\u00e1rio+da+Penha\n",
        "latlng": "41.43181111111111, -8.269752777777779"
    },
    "Chiesa_Madonna_della_Rocca\n": {
        "address": "Chiesa+Madonna+della+Rocca\n",
        "latlng": "37.35973055555556, 13.84353888888889"
    },
    "Madonna_dell'Acero-Santuario\n": {
        "address": "Madonna+dell'Acero+Santuario\n",
        "latlng": "44.14791944444445, 10.822930555555555"
    },
    "Duomo_(Guardiagrele)\n": {
        "address": "Duomo+(Guardiagrele)\n",
        "latlng": "42.190641666666664, 14.221880555555556"
    },
    "Church_of_the_Discovery_of_the_Holy_Cross,_Hrodna\n": {
        "address": "Church+of+the+Discovery+of+the+Holy+Cross,+Hrodna\n",
        "latlng": "53.675, 23.8303"
    },
    "Church_of_Santa_Cruz,_Baeza\n": {
        "address": "Church+of+Santa+Cruz,+Baeza\n",
        "latlng": "37.99136111111111, -3.4680833333333334"
    },
    "St_Elisabeth_Church_(Budapest)\n": {
        "address": "St+Elisabeth+Church+(Budapest)\n",
        "latlng": "47.5014, 19.0761"
    },
    "San_Lorenzo_(Florence)\n": {
        "address": "San+Lorenzo+(Florence)\n",
        "latlng": "43.77488888888889, 11.253863888888889"
    },
    "Basilique_Notre-Dame_de_Gray\n": {
        "address": "Basilique+Notre+Dame+de+Gray\n",
        "latlng": "47.44633333333333, 5.5914722222222215"
    },
    "Church_of_Santa_Mar\u00eda,_Santa_Cruz_de_la_Ser\u00f3s\n": {
        "address": "Church+of+Santa+Mar\u00eda,+Santa+Cruz+de+la+Ser\u00f3s\n",
        "latlng": "42.52269444444445, -0.6742777777777778"
    },
    "Minor_basilica_of_san_Dalmazio_(Quargnento)\n": {
        "address": "Minor+basilica+of+san+Dalmazio+(Quargnento)\n",
        "latlng": "44.94517777777777, 8.48773611111111"
    },
    "Pfarrkirche_Bendern\n": {
        "address": "Pfarrkirche+Bendern\n",
        "latlng": "47.211511111111115, 9.503886111111111"
    },
    "St._Viktor_(Hochkirchen)\n": {
        "address": "St.+Viktor+(Hochkirchen)\n",
        "latlng": "50.7979, 6.6399"
    },
    "Maria_Radna_Monastery,_Lipova\n": {
        "address": "Maria+Radna+Monastery,+Lipova\n",
        "latlng": "46.099111111111114, 21.685950000000002"
    },
    "Church_of_Santa_Mar\u00eda,_Carri\u00f3n_de_los_Condes\n": {
        "address": "Church+of+Santa+Mar\u00eda,+Carri\u00f3n+de+los+Condes\n",
        "latlng": "42.3374, -4.601561111111111"
    },
    "Monastery_of_San_Benito_el_Real,_Valladolid\n": {
        "address": "Monastery+of+San+Benito+el+Real,+Valladolid\n",
        "latlng": "41.65421111111111, -4.7293666666666665"
    },
    "Boso-Boso_Church\n": {
        "address": "Boso+Boso+Church\n",
        "latlng": null
    },
    "Santa_Maria_Maggiore_(Trento)\n": {
        "address": "Santa+Maria+Maggiore+(Trento)\n",
        "latlng": "46.06863333333334, 11.119383333333333"
    },
    "Church_of_Santiago,_Carri\u00f3n_de_los_Condes\n": {
        "address": "Church+of+Santiago,+Carri\u00f3n+de+los+Condes\n",
        "latlng": "42.338055555555556, -4.603888888888888"
    },
    "Church_of_Nuestra_Se\u00f1ora_de_las_Angustias,_Valladolid\n": {
        "address": "Church+of+Nuestra+Se\u00f1ora+de+las+Angustias,+Valladolid\n",
        "latlng": "41.653888888888886, -4.723888888888889"
    },
    "Asamkirche_(Munich)\n": {
        "address": "Asamkirche+(Munich)\n",
        "latlng": "48.13520555555556, 11.569513888888888"
    },
    "St._Michael_(Munich)\n": {
        "address": "St.+Michael+(Munich)\n",
        "latlng": "48.13883888888889, 11.570380555555555"
    },
    "Santa_Maria_di_Loreto_(Forio)\n": {
        "address": "Santa+Maria+di+Loreto+(Forio)\n",
        "latlng": "40.7366, 13.859819444444444"
    },
    "Santi_Pietro_e_Paolo_(Acireale)\n": {
        "address": "Santi+Pietro+e+Paolo+(Acireale)\n",
        "latlng": "37.612611111111114, 15.166380555555556"
    },
    "Basilique_Notre-Dame_de_l'\u00c9pine_d'\u00c9vron\n": {
        "address": "Basilique+Notre+Dame+de+l'\u00c9pine+d'\u00c9vron\n",
        "latlng": "48.156444444444446, -0.4028777777777778"
    },
    "Saint_Peter's_Basilica\n": {
        "address": "Saint+Peter's+Basilica\n",
        "latlng": "41.90222222222222, 12.453416666666666"
    },
    "Tumauini_Church\n": {
        "address": "Tumauini+Church\n",
        "latlng": "17.275394444444444, 121.807125"
    },
    "Binondo_Church\n": {
        "address": "Binondo+Church\n",
        "latlng": "14.599966666666667, 120.9744388888889"
    },
    "Saint_Joseph_Parish_Church_of_Baras\n": {
        "address": "Saint+Joseph+Parish+Church+of+Baras\n",
        "latlng": null
    },
    "Our_Lady_of_the_Assumption_Parish_Church_in_Bulacan,_Bulacan\n": {
        "address": "Our+Lady+of+the+Assumption+Parish+Church+in+Bulacan,+Bulacan\n",
        "latlng": "14.795399999999999, 120.87979999999999"
    },
    "Guagua_Church\n": {
        "address": "Guagua+Church\n",
        "latlng": "14.964444444444444, 120.63388888888889"
    },
    "Santuario_di_Poggio_Bustone\n": {
        "address": "Santuario+di+Poggio+Bustone\n",
        "latlng": "42.50438055555556, 12.892852777777778"
    },
    "Santa_Ana_Church_(Manila)\n": {
        "address": "Santa+Ana+Church+(Manila)\n",
        "latlng": "14.581952777777778, 121.01376388888889"
    },
    "Santuario_del_Santo_Cristo\n": {
        "address": "Santuario+del+Santo+Cristo\n",
        "latlng": "14.598333333333334, 121.03055555555555"
    },
    "Basilica_of_Javier\n": {
        "address": "Basilica+of+Javier\n",
        "latlng": "42.594225, -1.2160638888888888"
    },
    "San_Nicol\u00f2_(Lecco)\n": {
        "address": "San+Nicol\u00f2+(Lecco)\n",
        "latlng": "45.856700000000004, 9.38888888888889"
    },
    "Sampaloc_Church\n": {
        "address": "Sampaloc+Church\n",
        "latlng": "14.603319444444445, 120.99358055555555"
    },
    "Basilica_of_Our_Lady_of_Sorrows_(Krupka)\n": {
        "address": "Basilica+of+Our+Lady+of+Sorrows+(Krupka)\n",
        "latlng": "50.68173888888889, 13.872027777777777"
    },
    "General_Trias_Church\n": {
        "address": "General+Trias+Church\n",
        "latlng": "14.3855, 120.88"
    },
    "Santa_Maria_de_finibus_terrae_(Santa_Maria_di_Leuca)\n": {
        "address": "Santa+Maria+de+finibus+terrae+(Santa+Maria+di+Leuca)\n",
        "latlng": "39.79656111111111, 18.368938888888888"
    },
    "Manaoag_Church\n": {
        "address": "Manaoag+Church\n",
        "latlng": "16.044019444444444, 120.4889"
    },
    "St._Emmeram_(Regensburg)\n": {
        "address": "St.+Emmeram+(Regensburg)\n",
        "latlng": "49.01537777777778, 12.092688888888889"
    },
    "Basilica_Madonna_di_Tirano\n": {
        "address": "Basilica+Madonna+di+Tirano\n",
        "latlng": "46.21791944444445, 10.155102777777778"
    },
    "Sant'Agostino_(Rieti)\n": {
        "address": "Sant'Agostino+(Rieti)\n",
        "latlng": "42.404488888888885, 12.862966666666667"
    },
    "Brooklyn_Bridge\n": {
        "address": "Brooklyn+Bridge\n",
        "latlng": "40.70566666666667, -73.99633333333334"
    },
    "Pont_Alexandre-III\n": {
        "address": "Pont+Alexandre+III\n",
        "latlng": "48.86361111111111, 2.313611111111111"
    },
    "Puente_de_Alc\u00e1ntara,_Toledo\n": {
        "address": "Puente+de+Alc\u00e1ntara,+Toledo\n",
        "latlng": "39.8603, -4.0175"
    },
    "Arc_de_Triomphe,_Paris_Las_Vegas\n": {
        "address": "Arc+de+Triomphe,+Paris+Las+Vegas\n",
        "latlng": "36.111675, -115.17161666666667"
    },
    "Arc_de_Triomphe_de_l'\u00c9toile\n": {
        "address": "Arc+de+Triomphe+de+l'\u00c9toile\n",
        "latlng": "48.87388888888889, 2.295"
    },
    "Arcade_du_Cinquantenaire\n": {
        "address": "Arcade+du+Cinquantenaire\n",
        "latlng": "50.84027777777778, 4.392777777777778"
    },
    "Porte_de_Paris_(Lille)\n": {
        "address": "Porte+de+Paris+(Lille)\n",
        "latlng": "50.6297, 3.0687194444444446"
    },
    "Teatro_municipale,_Reggio_Emilia\n": {
        "address": "Teatro+municipale,+Reggio+Emilia\n",
        "latlng": "44.70063888888889, 10.631283333333334"
    },
    "Church_of_Santa_Mar\u00eda_la_Real,_Sang\u00fcesa\n": {
        "address": "Church+of+Santa+Mar\u00eda+la+Real,+Sang\u00fcesa\n",
        "latlng": "42.57703611111111, -1.2852999999999999"
    },
    "Arco_della_Pace_(Milan)\n": {
        "address": "Arco+della+Pace+(Milan)\n",
        "latlng": "45.47569722222222, 9.172408333333333"
    },
    "Arco_di_Augusto_(Rimini)\n": {
        "address": "Arco+di+Augusto+(Rimini)\n",
        "latlng": "44.056916666666666, 12.571111111111112"
    },
    "Villa_di_Careggi\n": {
        "address": "Villa+di+Careggi\n",
        "latlng": null
    },
    "Royal_Museum_for_Central_Africa\n": {
        "address": "Royal+Museum+for+Central+Africa\n",
        "latlng": "50.83088888888889, 4.518497222222222"
    },
    "Raadhuis_Hilversum\n": {
        "address": "Raadhuis+Hilversum\n",
        "latlng": "52.229061111111115, 5.170430555555556"
    },
    "City_Hall,_Hong_Kong\n": {
        "address": "City+Hall,+Hong+Kong\n",
        "latlng": "22.282, 114.16128055555556"
    },
    "Pal\u00e1cio_de_Monserrate\n": {
        "address": "Pal\u00e1cio+de+Monserrate\n",
        "latlng": "38.7942, -9.420638888888888"
    },
    "Town_hall_(Enschede)\n": {
        "address": "Town+hall+(Enschede)\n",
        "latlng": "52.21944444444445, 6.8966666666666665"
    },
    "Palais_des_Papes_d'Avignon\n": {
        "address": "Palais+des+Papes+d'Avignon\n",
        "latlng": "43.9508, 4.8075"
    },
    "Zwinger,_Dresden\n": {
        "address": "Zwinger,+Dresden\n",
        "latlng": "51.05305555555555, 13.733888888888888"
    },
    "Iglesia_de_Nuestra_Se\u00f1ora_de_los_Remedios_(Yaiza)\n": {
        "address": "Iglesia+de+Nuestra+Se\u00f1ora+de+los+Remedios+(Yaiza)\n",
        "latlng": "28.9524, -13.765"
    },
    "Museu_Frederic_Mar\u00e8s\n": {
        "address": "Museu+Frederic+Mar\u00e8s\n",
        "latlng": "41.3844, 2.1766694444444443"
    },
    "Santa_Maria_del_Pi\n": {
        "address": "Santa+Maria+del+Pi\n",
        "latlng": "41.382222222222225, 2.1738888888888885"
    },
    "Pra\u00e7a_do_Imp\u00e9rio_(Lisbon)\n": {
        "address": "Pra\u00e7a+do+Imp\u00e9rio+(Lisbon)\n",
        "latlng": "38.69605833333333, -9.206022222222222"
    },
    "Chaturbhuj_Temple,_Orchha\n": {
        "address": "Chaturbhuj+Temple,+Orchha\n",
        "latlng": "25.3501, 78.63990000000001"
    },
    "General_Post_Office,_Hong_Kong\n": {
        "address": "General+Post+Office,+Hong+Kong\n",
        "latlng": "22.283416666666668, 114.15958611111111"
    },
    "Amphitheatre_(Pompeii)\n": {
        "address": "Amphitheatre+(Pompeii)\n",
        "latlng": "40.751263888888886, 14.494969444444443"
    },
    "Presidential_Palace_in_Warsaw\n": {
        "address": "Presidential+Palace+in+Warsaw\n",
        "latlng": "52.24277777777778, 21.015833333333333"
    },
    "National_Museum_of_African_American_History_and_Culture\n": {
        "address": "National+Museum+of+African+American+History+and+Culture\n",
        "latlng": "38.89111111111111, -77.03277777777778"
    },
    "Museo_Casa_Natal_de_Jovellanos\n": {
        "address": "Museo+Casa+Natal+de+Jovellanos\n",
        "latlng": "43.54586666666666, -5.662633333333334"
    },
    "Railway_Museum_(Saitama)\n": {
        "address": "Railway+Museum+(Saitama)\n",
        "latlng": "35.92055555555555, 139.61833333333334"
    },
    "Museu_Militar_de_Lisboa\n": {
        "address": "Museu+Militar+de+Lisboa\n",
        "latlng": "38.71319444444445, -9.1242"
    },
    "Nordiska_museet\n": {
        "address": "Nordiska+museet\n",
        "latlng": "59.32916666666667, 18.093333333333334"
    },
    "BoCS_art_(Cosenza)\n": {
        "address": "BoCS+art+(Cosenza)\n",
        "latlng": "39.29221111111111, 16.258019444444443"
    },
    "National_Museum_of_Natural_History,_United_States\n": {
        "address": "National+Museum+of+Natural+History,+United+States\n",
        "latlng": "38.8913, -77.0259"
    },
    "Mission_San_Juan_Bautista\n": {
        "address": "Mission+San+Juan+Bautista\n",
        "latlng": "36.8451, -121.536"
    },
    "Natural_History_Museum,_London\n": {
        "address": "Natural+History+Museum,+London\n",
        "latlng": "51.49611111111111, -0.1761111111111111"
    },
    "Swedish_Museum_of_Natural_History\n": {
        "address": "Swedish+Museum+of+Natural+History\n",
        "latlng": "59.36888888888889, 18.053611111111113"
    },
    "American_Museum_of_Natural_History\n": {
        "address": "American+Museum+of+Natural+History\n",
        "latlng": "40.780833333333334, -73.97444444444444"
    },
    "House_of_the_painter_Sali_Shijaku\n": {
        "address": "House+of+the+painter+Sali+Shijaku\n",
        "latlng": "41.335947222222224, 19.820225"
    },
    "Iglesia_de_Santa_Clara,_Bogot\u00e1\n": {
        "address": "Iglesia+de+Santa+Clara,+Bogot\u00e1\n",
        "latlng": "4.596666666666667, -74.07722222222222"
    },
    "Beckford's_Tower\n": {
        "address": "Beckford's+Tower\n",
        "latlng": "51.40656111111111, -2.37885"
    },
    "San_Diego_Natural_History_Museum\n": {
        "address": "San+Diego+Natural+History+Museum\n",
        "latlng": "32.7321, -117.147"
    },
    "Splash_Mountain\n": {
        "address": "Splash+Mountain\n",
        "latlng": null
    },
    "Napoleon's_summer_villa_in_San_Martino\n": {
        "address": "Napoleon's+summer+villa+in+San+Martino\n",
        "latlng": "42.78553055555555, 10.280391666666668"
    },
    "Santa_Teresa_La_Antigua\n": {
        "address": "Santa+Teresa+La+Antigua\n",
        "latlng": "19.433855555555557, -99.13071111111111"
    },
    "Museu_de_Jos\u00e9_Malhoa\n": {
        "address": "Museu+de+Jos\u00e9+Malhoa\n",
        "latlng": "39.4008, -9.134"
    },
    "Ince_Minare_Museum\n": {
        "address": "Ince+Minare+Museum\n",
        "latlng": "37.872822222222226, 32.49019444444445"
    },
    "Castello_Bufalini_(San_Giustino)\n": {
        "address": "Castello+Bufalini+(San+Giustino)\n",
        "latlng": "43.54937777777778, 12.176825"
    },
    "Santa_Caterina_delle_Ruote_(Bagno_a_Ripoli)\n": {
        "address": "Santa+Caterina+delle+Ruote+(Bagno+a+Ripoli)\n",
        "latlng": "43.73903888888889, 11.317497222222222"
    },
    "Villa_Della_Porta_Bozzolo\n": {
        "address": "Villa+Della+Porta+Bozzolo\n",
        "latlng": "45.90683333333333, 8.71216111111111"
    },
    "Fortezza_Santa_Barbara_(Pistoia)\n": {
        "address": "Fortezza+Santa+Barbara+(Pistoia)\n",
        "latlng": "43.92912777777777, 10.922630555555555"
    },
    "Sant'Antonio_Abate_del_Tau_(Pistoia)\n": {
        "address": "Sant'Antonio+Abate+del+Tau+(Pistoia)\n",
        "latlng": "43.930927777777775, 10.916113888888889"
    },
    "Castle_of_Poppi\n": {
        "address": "Castle+of+Poppi\n",
        "latlng": "43.72239722222223, 11.767144444444446"
    },
    "Castello_dei_Vicari\n": {
        "address": "Castello+dei+Vicari\n",
        "latlng": "43.56605833333333, 10.592030555555557"
    },
    "Castello_di_Piombino\n": {
        "address": "Castello+di+Piombino\n",
        "latlng": "42.92126111111111, 10.529475000000001"
    },
    "Snowshill_Manor\n": {
        "address": "Snowshill+Manor\n",
        "latlng": "52.0029, -1.8604694444444445"
    },
    "Santralistanbul\n": {
        "address": "Santralistanbul\n",
        "latlng": "41.0665, 28.9461"
    },
    "Cas\u00f3n_del_Buen_Retiro\n": {
        "address": "Cas\u00f3n+del+Buen+Retiro\n",
        "latlng": "40.41525, -3.689569444444445"
    },
    "Vleeshuis_(Antwerpen)\n": {
        "address": "Vleeshuis+(Antwerpen)\n",
        "latlng": "51.22271111111111, 4.3991694444444445"
    },
    "Museu_Rom\u00e0ntic_Can_Llopis\n": {
        "address": "Museu+Rom\u00e0ntic+Can+Llopis\n",
        "latlng": "41.23694444444445, 1.807777777777778"
    },
    "Casa_de_la_Moneda_(Bogot\u00e1)\n": {
        "address": "Casa+de+la+Moneda+(Bogot\u00e1)\n",
        "latlng": "4.596666666666667, -74.0736111111111"
    },
    "Ognissanti_(Florence)\n": {
        "address": "Ognissanti+(Florence)\n",
        "latlng": "43.77251111111111, 11.245980555555555"
    },
    "Maison_de_l'Armateur\n": {
        "address": "Maison+de+l'Armateur\n",
        "latlng": "49.4869, 0.11275"
    },
    "Mus\u00e9e_Bourdelle\n": {
        "address": "Mus\u00e9e+Bourdelle\n",
        "latlng": "48.84305555555556, 2.318333333333333"
    },
    "Iowa_State_Capitol\n": {
        "address": "Iowa+State+Capitol\n",
        "latlng": "41.59119444444445, -93.60380555555555"
    },
    "Rector's_palace\n": {
        "address": "Rector's+palace\n",
        "latlng": "42.640277777777776, 18.110833333333336"
    },
    "Castello_Estense_(Ferrara)\n": {
        "address": "Castello+Estense+(Ferrara)\n",
        "latlng": "44.83762777777778, 11.619425"
    },
    "Museu_d'Art_Contemporani_de_Barcelona\n": {
        "address": "Museu+d'Art+Contemporani+de+Barcelona\n",
        "latlng": "41.38311111111111, 2.1667888888888887"
    },
    "The_Cloisters\n": {
        "address": "The+Cloisters\n",
        "latlng": "40.8648, -73.9319"
    },
    "Ch\u00e2teau_d'\u00c9couen\n": {
        "address": "Ch\u00e2teau+d'\u00c9couen\n",
        "latlng": "49.0175, 2.3783333333333334"
    },
    "Mus\u00e9e_d'Art_et_d'Industrie_de_Roubaix\n": {
        "address": "Mus\u00e9e+d'Art+et+d'Industrie+de+Roubaix\n",
        "latlng": "50.69229444444444, 3.167819444444444"
    },
    "Tower_of_David\n": {
        "address": "Tower+of+David\n",
        "latlng": "31.77611111111111, 35.22777777777778"
    },
    "Cleveland_Museum_of_Art\n": {
        "address": "Cleveland+Museum+of+Art\n",
        "latlng": "41.50888888888889, -81.61166666666666"
    },
    "Waag_(Deventer)\n": {
        "address": "Waag+(Deventer)\n",
        "latlng": "52.25138888888889, 6.159722222222222"
    },
    "Gemaal_Halfweg\n": {
        "address": "Gemaal+Halfweg\n",
        "latlng": "52.383230555555556, 4.749933333333334"
    },
    "Fundaci\u00f3_Joan_Mir\u00f3\n": {
        "address": "Fundaci\u00f3+Joan+Mir\u00f3\n",
        "latlng": "41.368611111111115, 2.1599999999999997"
    },
    "Abbaye_de_Chaalis\n": {
        "address": "Abbaye+de+Chaalis\n",
        "latlng": "49.1475, 2.6861111111111113"
    },
    "Nashville_Parthenon\n": {
        "address": "Nashville+Parthenon\n",
        "latlng": "36.1496, -86.81349999999999"
    },
    "Burg_Forchtenstein\n": {
        "address": "Burg+Forchtenstein\n",
        "latlng": "47.70973888888889, 16.331688888888888"
    },
    "Fitzwilliam_Museum\n": {
        "address": "Fitzwilliam+Museum\n",
        "latlng": "52.20027777777778, 0.11944444444444445"
    },
    "Ch\u00e2teau_de_Compi\u00e8gne\n": {
        "address": "Ch\u00e2teau+de+Compi\u00e8gne\n",
        "latlng": "49.41916666666666, 2.831111111111111"
    },
    "Skoklosters_slott\n": {
        "address": "Skoklosters+slott\n",
        "latlng": "59.7038, 17.619411111111113"
    },
    "Detroit_Institute_of_Arts\n": {
        "address": "Detroit+Institute+of+Arts\n",
        "latlng": "42.35944444444445, -83.06472222222222"
    },
    "Spedale_degli_Innocenti\n": {
        "address": "Spedale+degli+Innocenti\n",
        "latlng": "43.77638888888889, 11.261111111111111"
    },
    "Roman_Baths_(Bath)\n": {
        "address": "Roman+Baths+(Bath)\n",
        "latlng": "51.381, -2.359488888888889"
    },
    "Villa_dei_Quintili_(Rome)\n": {
        "address": "Villa+dei+Quintili+(Rome)\n",
        "latlng": "41.83142777777778, 12.552483333333335"
    },
    "Villa_Carlotta_(Tremezzo)\n": {
        "address": "Villa+Carlotta+(Tremezzo)\n",
        "latlng": "45.9864, 9.230838888888888"
    },
    "Vizcaya_Museum_and_Gardens\n": {
        "address": "Vizcaya+Museum+and+Gardens\n",
        "latlng": "25.74361111111111, -80.21027777777778"
    },
    "El_Capricho_(Gaud\u00ed)\n": {
        "address": "El+Capricho+(Gaud\u00ed)\n",
        "latlng": "43.38367777777778, -4.292741666666666"
    },
    "Schloss_und_Schlossgarten_Caputh\n": {
        "address": "Schloss+und+Schlossgarten+Caputh\n",
        "latlng": "52.3491, 13.0007"
    },
    "Ch\u00e2teau_de_Malmaison\n": {
        "address": "Ch\u00e2teau+de+Malmaison\n",
        "latlng": "48.8708, 2.166847222222222"
    },
    "Nieuwe_Kerk_(Amsterdam)\n": {
        "address": "Nieuwe+Kerk+(Amsterdam)\n",
        "latlng": "52.37388888888889, 4.8919444444444435"
    },
    "Solomon_R._Guggenheim_Museum\n": {
        "address": "Solomon+R.+Guggenheim+Museum\n",
        "latlng": "40.783055555555556, -73.9588888888889"
    },
    "Secession_Hall_(Austria)\n": {
        "address": "Secession+Hall+(Austria)\n",
        "latlng": "48.20039444444445, 16.365933333333334"
    },
    "Museum_of_Science_and_Industry_(Chicago)\n": {
        "address": "Museum+of+Science+and+Industry+(Chicago)\n",
        "latlng": "41.79055555555556, -87.58277777777778"
    },
    "Smolny_Cathedral\n": {
        "address": "Smolny+Cathedral\n",
        "latlng": "59.948874999999994, 30.395588888888888"
    },
    "World_of_Coca-Cola\n": {
        "address": "World+of+Coca+Cola\n",
        "latlng": "33.7628, -84.39280000000001"
    },
    "Museu_de_Arte_de_S\u00e3o_Paulo\n": {
        "address": "Museu+de+Arte+de+S\u00e3o+Paulo\n",
        "latlng": "-23.561111111111114, -46.655833333333334"
    },
    "New_England_Aquarium\n": {
        "address": "New+England+Aquarium\n",
        "latlng": "42.35901666666667, -71.05068333333332"
    },
    "Minnesota_State_Capitol\n": {
        "address": "Minnesota+State+Capitol\n",
        "latlng": "44.95430555555556, -93.10222222222221"
    },
    "Badia_a_Settimo\n": {
        "address": "Badia+a+Settimo\n",
        "latlng": "43.780405555555554, 11.144938888888888"
    },
    "Mosteiro_de_S\u00e3o_Vicente_de_Fora\n": {
        "address": "Mosteiro+de+S\u00e3o+Vicente+de+Fora\n",
        "latlng": "38.71472222222223, -9.127777777777778"
    },
    "CaixaForum_Madrid\n": {
        "address": "CaixaForum+Madrid\n",
        "latlng": "40.41090555555555, -3.6928972222222223"
    },
    "Castello_di_Miramare_(Trieste)\n": {
        "address": "Castello+di+Miramare+(Trieste)\n",
        "latlng": "45.70245277777778, 13.712316666666666"
    },
    "Museo_del_Prado\n": {
        "address": "Museo+del+Prado\n",
        "latlng": "40.413888888888884, -3.6922222222222225"
    },
    "Villa_La_Petraia\n": {
        "address": "Villa+La+Petraia\n",
        "latlng": "43.81897777777778, 11.235275"
    },
    "Villa_della_Regina_(Turin)\n": {
        "address": "Villa+della+Regina+(Turin)\n",
        "latlng": "45.05803611111111, 7.707994444444445"
    },
    "Metropolitan_Museum_of_Art\n": {
        "address": "Metropolitan+Museum+of+Art\n",
        "latlng": "40.779444444444444, -73.96333333333334"
    },
    "Grote_of_Sint-Janskerk_Gouda\n": {
        "address": "Grote+of+Sint+Janskerk+Gouda\n",
        "latlng": "52.01083333333333, 4.711388888888889"
    },
    "R\u00f6misch-Germanisches_Museum\n": {
        "address": "R\u00f6misch+Germanisches+Museum\n",
        "latlng": "50.94054166666666, 6.958930555555556"
    },
    "Museu_de_Marinha_de_Lisboa\n": {
        "address": "Museu+de+Marinha+de+Lisboa\n",
        "latlng": "38.69709722222222, -9.208138888888888"
    },
    "Nieder\u00f6sterreichisches_Landhaus\n": {
        "address": "Nieder\u00f6sterreichisches+Landhaus\n",
        "latlng": "48.2014, 15.6333"
    },
    "Castle_Hohenwerfen\n": {
        "address": "Castle+Hohenwerfen\n",
        "latlng": "47.48291944444445, 13.188511111111112"
    },
    "Hyde_Park_Barracks,_Sydney\n": {
        "address": "Hyde+Park+Barracks,+Sydney\n",
        "latlng": "-33.869569444444444, 151.21275"
    },
    "Schloss_Esterh\u00e1zy,_Eisenstadt\n": {
        "address": "Schloss+Esterh\u00e1zy,+Eisenstadt\n",
        "latlng": "47.84648055555556, 16.519280555555554"
    },
    "Schloss_Mayerling\n": {
        "address": "Schloss+Mayerling\n",
        "latlng": "48.04671944444444, 16.098338888888886"
    },
    "Festung_Hohensalzburg\n": {
        "address": "Festung+Hohensalzburg\n",
        "latlng": "47.794999999999995, 13.0473"
    },
    "Monastery_Eberbach\n": {
        "address": "Monastery+Eberbach\n",
        "latlng": "50.0425, 8.046666666666667"
    },
    "Galleria_nazionale_d'arte_moderna_(Rome)\n": {
        "address": "Galleria+nazionale+d'arte+moderna+(Rome)\n",
        "latlng": "41.91704722222222, 12.479980555555557"
    },
    "Oude_Kerk_(Amsterdam)\n": {
        "address": "Oude+Kerk+(Amsterdam)\n",
        "latlng": "52.37416666666667, 4.898055555555555"
    },
    "Martin-Gropius-Bau_(Berlin)\n": {
        "address": "Martin+Gropius+Bau+(Berlin)\n",
        "latlng": "52.5066, 13.3818"
    },
    "Site_of_the_First_National_Congress_of_the_Communist_Party_of_China\n": {
        "address": "Site+of+the+First+National+Congress+of+the+Communist+Party+of+China\n",
        "latlng": "31.22208333333333, 121.47069444444445"
    },
    "Hohenzollern_Castle\n": {
        "address": "Hohenzollern+Castle\n",
        "latlng": "48.32356111111111, 8.9674"
    },
    "Charlottenburg_Palace\n": {
        "address": "Charlottenburg+Palace\n",
        "latlng": "52.52111111111111, 13.295833333333333"
    },
    "Nymphenburg_Palace\n": {
        "address": "Nymphenburg+Palace\n",
        "latlng": "48.158055555555556, 11.50361111111111"
    },
    "Castello_di_F\u00e9nis\n": {
        "address": "Castello+di+F\u00e9nis\n",
        "latlng": "45.73690277777778, 7.489013888888889"
    },
    "Palace_of_Fontainebleau\n": {
        "address": "Palace+of+Fontainebleau\n",
        "latlng": "48.40222222222222, 2.700555555555556"
    },
    "Schloss_Weikersheim\n": {
        "address": "Schloss+Weikersheim\n",
        "latlng": "49.4806, 9.895830555555555"
    },
    "Mole_Antonelliana\n": {
        "address": "Mole+Antonelliana\n",
        "latlng": "45.06898055555556, 7.693238888888889"
    },
    "Schloss_Moyland\n": {
        "address": "Schloss+Moyland\n",
        "latlng": "51.7553, 6.236811111111111"
    },
    "Edinburgh_Castle\n": {
        "address": "Edinburgh+Castle\n",
        "latlng": "55.948699999999995, -3.200730555555556"
    },
    "Museum_f\u00fcr_Naturkunde_Berlin\n": {
        "address": "Museum+f\u00fcr+Naturkunde+Berlin\n",
        "latlng": "52.5302, 13.3792"
    },
    "Su_Nuraxi_(Barumini)\n": {
        "address": "Su+Nuraxi+(Barumini)\n",
        "latlng": "39.70285555555556, 8.999883333333333"
    },
    "Kasteel_Amerongen\n": {
        "address": "Kasteel+Amerongen\n",
        "latlng": "51.99527777777778, 5.458333333333334"
    },
    "British_Museum\n": {
        "address": "British+Museum\n",
        "latlng": "51.519444444444446, -0.12694444444444444"
    },
    "Museum_zur_Vorgeschichte_des_Films\n": {
        "address": "Museum+zur+Vorgeschichte+des+Films\n",
        "latlng": "51.4291, 6.868180555555556"
    },
    "Neues_Museum_(Berlin)\n": {
        "address": "Neues+Museum+(Berlin)\n",
        "latlng": "52.520199999999996, 13.397599999999999"
    },
    "Guggenheim_Museum_Bilbao\n": {
        "address": "Guggenheim+Museum+Bilbao\n",
        "latlng": "43.26883055555555, -2.9341000000000004"
    },
    "San_Domenico_(Fiesole)\n": {
        "address": "San+Domenico+(Fiesole)\n",
        "latlng": "43.80114722222222, 11.285327777777777"
    },
    "Alte_Wasserkunst\n": {
        "address": "Alte+Wasserkunst\n",
        "latlng": "51.18066666666667, 14.420647222222222"
    },
    "Deutscher_Dom_(Berlin)\n": {
        "address": "Deutscher+Dom+(Berlin)\n",
        "latlng": "52.51275555555556, 13.392505555555555"
    },
    "Plaza_Mayor,_Segovia\n": {
        "address": "Plaza+Mayor,+Segovia\n",
        "latlng": "40.950297222222225, -4.123977777777777"
    },
    "Kapitelplatz_(Salzburg)\n": {
        "address": "Kapitelplatz+(Salzburg)\n",
        "latlng": "47.7972, 13.046899999999999"
    },
    "Herbert-von-Karajan-Platz_(Salzburg)\n": {
        "address": "Herbert+von+Karajan+Platz+(Salzburg)\n",
        "latlng": null
    },
    "Piazzale_degli_Uffizi\n": {
        "address": "Piazzale+degli+Uffizi\n",
        "latlng": "43.768522222222224, 11.255588888888889"
    },
    "Piazzetta_Giuseppe_Arcangeli\n": {
        "address": "Piazzetta+Giuseppe+Arcangeli\n",
        "latlng": "44.055474999999994, 10.791769444444444"
    },
    "Piazza_Cardinale_Niccol\u00f2_(Prato)\n": {
        "address": "Piazza+Cardinale+Niccol\u00f2+(Prato)\n",
        "latlng": "43.88056111111111, 11.092169444444446"
    },
    "Piazza_Santa_Maria_delle_Carceri_(Prato)\n": {
        "address": "Piazza+Santa+Maria+delle+Carceri+(Prato)\n",
        "latlng": "43.87925, 11.098166666666668"
    },
    "Piazza_Castello_(Milan)\n": {
        "address": "Piazza+Castello+(Milan)\n",
        "latlng": "45.46908333333334, 9.181138888888889"
    },
    "Grote_Kerk,_Gorinchem\n": {
        "address": "Grote+Kerk,+Gorinchem\n",
        "latlng": "51.829550000000005, 4.973130555555556"
    },
    "Esgl\u00e9sia_de_Santa_Maria_i_Sant_Nicolau_de_Calella\n": {
        "address": "Esgl\u00e9sia+de+Santa+Maria+i+Sant+Nicolau+de+Calella\n",
        "latlng": "41.61375, 2.6583305555555556"
    },
    "\u00c9glise_Saint-Malo_de_Dinan\n": {
        "address": "\u00c9glise+Saint+Malo+de+Dinan\n",
        "latlng": "48.454800000000006, -2.0459888888888886"
    },
    "San_Tommaso_Cantuariense_(Verona)\n": {
        "address": "San+Tommaso+Cantuariense+(Verona)\n",
        "latlng": "45.4422, 11.0028"
    },
    "San_Paolo_a_Ripa_d'Arno\n": {
        "address": "San+Paolo+a+Ripa+d'Arno\n",
        "latlng": "43.71291666666667, 10.3935"
    },
    "Pieve_delle_Sante_Flora_e_Lucilla_(Santa_Fiora)\n": {
        "address": "Pieve+delle+Sante+Flora+e+Lucilla+(Santa+Fiora)\n",
        "latlng": "42.830377777777784, 11.585233333333333"
    },
    "St_Vincent's_Church,_Caythorpe\n": {
        "address": "St+Vincent's+Church,+Caythorpe\n",
        "latlng": "53.026199999999996, -0.6016638888888889"
    },
    "Sant'Andrea_(Sarzana)\n": {
        "address": "Sant'Andrea+(Sarzana)\n",
        "latlng": "44.11273055555556, 9.960991666666667"
    },
    "Saint_Joseph_church_in_Krak\u00f3w-Podg\u00f3rze\n": {
        "address": "Saint+Joseph+church+in+Krak\u00f3w+Podg\u00f3rze\n",
        "latlng": "50.043299999999995, 19.9499"
    },
    "\u00c9glise_Saint-L\u00e9onard_de_Foug\u00e8res\n": {
        "address": "\u00c9glise+Saint+L\u00e9onard+de+Foug\u00e8res\n",
        "latlng": "48.3517, -1.2049999999999998"
    },
    "Chiesa_di_Sant'Antonio_di_Padova_(Barcellona_Pozzo_di_Gotto)\n": {
        "address": "Chiesa+di+Sant'Antonio+di+Padova+(Barcellona+Pozzo+di+Gotto)\n",
        "latlng": "38.15063611111111, 15.202308333333333"
    },
    "Martinikerk_(Easterein)\n": {
        "address": "Martinikerk+(Easterein)\n",
        "latlng": "53.09706666666667, 5.6196"
    },
    "St._John's_Church,_Kolkata\n": {
        "address": "St.+John's+Church,+Kolkata\n",
        "latlng": "22.569905555555554, 88.34594722222222"
    },
    "Saint_Saviour_Church_(Dubrovnik)\n": {
        "address": "Saint+Saviour+Church+(Dubrovnik)\n",
        "latlng": "42.6417, 18.106900000000003"
    },
    "St_Stevenskerk_(Nijmegen)\n": {
        "address": "St+Stevenskerk+(Nijmegen)\n",
        "latlng": "51.84777777777778, 5.8625"
    },
    "Sint-Pauluskerk_(Antwerpen)\n": {
        "address": "Sint+Pauluskerk+(Antwerpen)\n",
        "latlng": "51.223888888888894, 4.4013888888888895"
    },
    "Baptistry_(Pistoia)\n": {
        "address": "Baptistry+(Pistoia)\n",
        "latlng": "43.93311388888888, 10.917088888888888"
    },
    "\u00c9glise_de_la_Trinit\u00e9_de_Caen\n": {
        "address": "\u00c9glise+de+la+Trinit\u00e9+de+Caen\n",
        "latlng": "49.18672222222222, -0.35325277777777775"
    },
    "Heddal_stavkirke\n": {
        "address": "Heddal+stavkirke\n",
        "latlng": "59.57956111111111, 9.17625"
    },
    "\u00c9glise_Sainte-Colombe_de_Chevilly-Larue\n": {
        "address": "\u00c9glise+Sainte+Colombe+de+Chevilly+Larue\n",
        "latlng": "48.771452777777775, 2.3541444444444446"
    },
    "San_Pietro_Caveoso_(Matera)\n": {
        "address": "San+Pietro+Caveoso+(Matera)\n",
        "latlng": "40.6644, 16.6126"
    },
    "San_Vito_(Barcellona_Pozzo_di_Gotto)\n": {
        "address": "San+Vito+(Barcellona+Pozzo+di+Gotto)\n",
        "latlng": null
    },
    "Church_of_San_Mart\u00edn,_Alberite\n": {
        "address": "Church+of+San+Mart\u00edn,+Alberite\n",
        "latlng": "42.40612222222222, -2.440863888888889"
    },
    "Bas\u00edlica_de_la_Macarena,_Sevilla\n": {
        "address": "Bas\u00edlica+de+la+Macarena,+Sevilla\n",
        "latlng": "37.402499999999996, -5.989444444444445"
    },
    "\u00c9glise_Notre-Dame_de_Saint-L\u00f4\n": {
        "address": "\u00c9glise+Notre+Dame+de+Saint+L\u00f4\n",
        "latlng": "49.115300000000005, -1.0941999999999998"
    },
    "Nederlule\u00e5_kyrka\n": {
        "address": "Nederlule\u00e5+kyrka\n",
        "latlng": "65.6457, 22.0282"
    },
    "Christuskirche_(Tauberbischofsheim)\n": {
        "address": "Christuskirche+(Tauberbischofsheim)\n",
        "latlng": "49.62202777777778, 9.657533333333333"
    },
    "Catedral_Bas\u00edlica_Metropolitana_Nuestra_Se\u00f1ora_del_Rosario_de_Manizales\n": {
        "address": "Catedral+Bas\u00edlica+Metropolitana+Nuestra+Se\u00f1ora+del+Rosario+de+Manizales\n",
        "latlng": "5.067511111111111, -75.5174"
    },
    "Cath\u00e9drale_Notre-Dame_de_Paris\n": {
        "address": "Cath\u00e9drale+Notre+Dame+de+Paris\n",
        "latlng": "48.853, 2.3498"
    },
    "Wedding_Church_(Catholic)\n": {
        "address": "Wedding+Church+(Catholic)\n",
        "latlng": "32.746700000000004, 35.3386"
    },
    "Duomo_(Amalfi)\n": {
        "address": "Duomo+(Amalfi)\n",
        "latlng": "40.63444444444444, 14.603055555555555"
    },
    "Church_of_Reis_Magos\n": {
        "address": "Church+of+Reis+Magos\n",
        "latlng": null
    },
    "Mausoleum_of_Gabriele_D'Annunzio\n": {
        "address": "Mausoleum+of+Gabriele+D'Annunzio\n",
        "latlng": "45.62588888888889, 10.565869444444445"
    },
    "Castel_Sant'Angelo_(Rome)\n": {
        "address": "Castel+Sant'Angelo+(Rome)\n",
        "latlng": "41.90304444444444, 12.466308333333332"
    },
    "Panth\u00e9on_de_Paris\n": {
        "address": "Panth\u00e9on+de+Paris\n",
        "latlng": "48.84619722222222, 2.346105555555556"
    },
    "Soltaniyeh_Dome\n": {
        "address": "Soltaniyeh+Dome\n",
        "latlng": "36.43380555555555, 48.795941666666664"
    },
    "Al-Rifa'i_Mosque\n": {
        "address": "Al+Rifa'i+Mosque\n",
        "latlng": "30.032777777777778, 31.256666666666668"
    },
    "Alc\u00e1zar_of_Seville\n": {
        "address": "Alc\u00e1zar+of+Seville\n",
        "latlng": "37.384425, -5.991186111111111"
    },
    "Boston_Public_Library,_McKim_Building\n": {
        "address": "Boston+Public+Library,+McKim+Building\n",
        "latlng": "42.3492, -71.07874444444444"
    },
    "Frauenkirche_(Dresden)\n": {
        "address": "Frauenkirche+(Dresden)\n",
        "latlng": "51.051944444444445, 13.741666666666665"
    },
    "British_Library\n": {
        "address": "British+Library\n",
        "latlng": "51.529444444444444, -0.12694444444444444"
    },
    "Monastery_of_San_Lorenzo_de_El_Escorial\n": {
        "address": "Monastery+of+San+Lorenzo+de+El+Escorial\n",
        "latlng": "40.58916666666667, -4.147777777777778"
    },
    "V\u00f6lkerschlachtdenkmal\n": {
        "address": "V\u00f6lkerschlachtdenkmal\n",
        "latlng": "51.31222222222222, 12.413055555555555"
    },
    "Synagogue_of_Santa_Mar\u00eda_la_Blanca_(Toledo)\n": {
        "address": "Synagogue+of+Santa+Mar\u00eda+la+Blanca+(Toledo)\n",
        "latlng": "39.856944444444444, -4.030444444444444"
    },
    "VDNKh_(All-Russian_Exhibition_Center)\n": {
        "address": "VDNKh+(All+Russian+Exhibition+Center)\n",
        "latlng": "55.82972222222222, 37.632222222222225"
    },
    "Helsinki_Central_railway_station\n": {
        "address": "Helsinki+Central+railway+station\n",
        "latlng": "60.17104722222222, 24.94145"
    },
    "Mikveh_Israel_Synagogue\n": {
        "address": "Mikveh+Israel+Synagogue\n",
        "latlng": "32.07104722222223, -81.09397777777777"
    },
    "Umayyad_Mosque\n": {
        "address": "Umayyad+Mosque\n",
        "latlng": "33.51138888888889, 36.306666666666665"
    },
    "Southern_Sun_Cape_Sun_hotel,_Cape_Town\n": {
        "address": "Southern+Sun+Cape+Sun+hotel,+Cape+Town\n",
        "latlng": "-33.92131944444444, 18.421969444444446"
    },
    "University_Church_of_St_Mary_the_Virgin\n": {
        "address": "University+Church+of+St+Mary+the+Virgin\n",
        "latlng": "51.7528, -1.253738888888889"
    },
    "Our_Lady_and_St_Cuthbert's_Church,_Berwick-upon-Tweed\n": {
        "address": "Our+Lady+and+St+Cuthbert's+Church,+Berwick+upon+Tweed\n",
        "latlng": "55.7696, -1.9994"
    },
    "Cathedral_of_Christ_the_Saviour\n": {
        "address": "Cathedral+of+Christ+the+Saviour\n",
        "latlng": "55.74444444444445, 37.605555555555554"
    },
    "Grote_Kerk_(Workum)\n": {
        "address": "Grote+Kerk+(Workum)\n",
        "latlng": "52.97888888888889, 5.442777777777778"
    },
    "San_Francesco_(Gualdo_Tadino)\n": {
        "address": "San+Francesco+(Gualdo+Tadino)\n",
        "latlng": "43.23116111111111, 12.784230555555556"
    },
    "San_Giorgio_(Montemerano)\n": {
        "address": "San+Giorgio+(Montemerano)\n",
        "latlng": "42.622347222222224, 11.490833333333333"
    },
    "San_Nicola_(Ottana)\n": {
        "address": "San+Nicola+(Ottana)\n",
        "latlng": "40.233250000000005, 9.042333333333334"
    },
    "Templo_Expiatorio,_Le\u00f3n\n": {
        "address": "Templo+Expiatorio,+Le\u00f3n\n",
        "latlng": "21.120275, -101.67471388888889"
    },
    "Santa_Marta_(Lezzeno)\n": {
        "address": "Santa+Marta+(Lezzeno)\n",
        "latlng": "45.946349999999995, 9.194405555555555"
    },
    "Sant'Agata_(Radicofani)\n": {
        "address": "Sant'Agata+(Radicofani)\n",
        "latlng": "42.89663888888889, 11.767708333333335"
    },
    "Collegiata_di_Santa_Maria_Assunta_(Ariccia)\n": {
        "address": "Collegiata+di+Santa+Maria+Assunta+(Ariccia)\n",
        "latlng": "41.721066666666665, 12.67171111111111"
    },
    "Our_Lady_of_the_Immaculate_Conception_Church,_Goa\n": {
        "address": "Our+Lady+of+the+Immaculate+Conception+Church,+Goa\n",
        "latlng": "15.498333333333333, 73.82944444444443"
    },
    "San_Michele_in_Cioncio_(Pistoia)\n": {
        "address": "San+Michele+in+Cioncio+(Pistoia)\n",
        "latlng": "43.93441111111111, 10.91608888888889"
    },
    "Catharinakerk,_Aalsum\n": {
        "address": "Catharinakerk,+Aalsum\n",
        "latlng": "53.339444444444446, 6.003055555555555"
    },
    "St_Andrew's_Church,_Gatton_Park\n": {
        "address": "St+Andrew's+Church,+Gatton+Park\n",
        "latlng": "51.2608, -0.17363888888888887"
    },
    "San_Francesco_in_Chianacce_(Foiano_della_Chiana)\n": {
        "address": "San+Francesco+in+Chianacce+(Foiano+della+Chiana)\n",
        "latlng": "43.25688888888889, 11.810633333333334"
    },
    "Abbazia_di_San_Benedetto_in_Polirone\n": {
        "address": "Abbazia+di+San+Benedetto+in+Polirone\n",
        "latlng": "45.04255, 10.928602777777778"
    },
    "Cathedral_of_Justo\n": {
        "address": "Cathedral+of+Justo\n",
        "latlng": "40.39416666666666, -3.4885"
    },
    "San_Barnaba_(Castelletto,_Genoa)\n": {
        "address": "San+Barnaba+(Castelletto,+Genoa)\n",
        "latlng": "44.424, 8.928719444444443"
    },
    "San_Domenico_(Ancona)\n": {
        "address": "San+Domenico+(Ancona)\n",
        "latlng": "43.61925, 13.512580555555555"
    },
    "Dambanang_Kawayan\n": {
        "address": "Dambanang+Kawayan\n",
        "latlng": "14.322799999999999, 121.449"
    },
    "Collegiata_(Castiglione_Olona)\n": {
        "address": "Collegiata+(Castiglione+Olona)\n",
        "latlng": "45.75765, 8.8649"
    },
    "Madonna_della_Luce_(Perugia)\n": {
        "address": "Madonna+della+Luce+(Perugia)\n",
        "latlng": "43.11292777777778, 12.384233333333333"
    },
    "Galle_Dutch_Reformed_church\n": {
        "address": "Galle+Dutch+Reformed+church\n",
        "latlng": "6.028061111111111, 80.2169"
    },
    "Santa_Maria_delle_Grazie_(Sansepolcro)\n": {
        "address": "Santa+Maria+delle+Grazie+(Sansepolcro)\n",
        "latlng": "43.57190000000001, 12.1419"
    },
    "Santa_Maria_Nuova_(Gubbio)\n": {
        "address": "Santa+Maria+Nuova+(Gubbio)\n",
        "latlng": "43.35044166666667, 12.583019444444444"
    },
    "Santo_Stefano_(Verona)\n": {
        "address": "Santo+Stefano+(Verona)\n",
        "latlng": "45.4488, 11.0"
    },
    "San_Biagio_(Partina)\n": {
        "address": "San+Biagio+(Partina)\n",
        "latlng": "43.74975, 11.822888888888889"
    },
    "Sint-Jansbasiliek_(Oosterhout)\n": {
        "address": "Sint+Jansbasiliek+(Oosterhout)\n",
        "latlng": "51.644999999999996, 4.861111111111111"
    },
    "Santo_Spirito_(Ostuni)\n": {
        "address": "Santo+Spirito+(Ostuni)\n",
        "latlng": "40.731461111111116, 17.578488888888888"
    },
    "N\u00e1m\u011bst\u00ed_U_svat\u00e9ho_Ji\u0159\u00ed\n": {
        "address": "N\u00e1m\u011bst\u00ed+U+svat\u00e9ho+Ji\u0159\u00ed\n",
        "latlng": "50.091100000000004, 14.4018"
    },
    "Heimplatz_(Z\u00fcrich)\n": {
        "address": "Heimplatz+(Z\u00fcrich)\n",
        "latlng": "47.37063611111111, 8.548411111111111"
    },
    "Piazza_Rossini_(Bologna)\n": {
        "address": "Piazza+Rossini+(Bologna)\n",
        "latlng": "44.495380555555556, 11.34878888888889"
    },
    "Plaza_de_Oriente,_Madrid\n": {
        "address": "Plaza+de+Oriente,+Madrid\n",
        "latlng": "40.41806111111111, -3.7122194444444445"
    },
    "Henric_van_Veldekeplein_(Maastricht)\n": {
        "address": "Henric+van+Veldekeplein+(Maastricht)\n",
        "latlng": "50.84825, 5.686919444444444"
    },
    "Piazzetta_San_Marco_(Venice)\n": {
        "address": "Piazzetta+San+Marco+(Venice)\n",
        "latlng": "45.434152777777776, 12.339527777777779"
    },
    "Piazza_dei_Cavalieri_(Pisa)\n": {
        "address": "Piazza+dei+Cavalieri+(Pisa)\n",
        "latlng": "43.71944444444445, 10.4"
    },
    "Market_Square_in_Wroc\u0142aw\n": {
        "address": "Market+Square+in+Wroc\u0142aw\n",
        "latlng": "51.10944444444445, 17.031944444444445"
    },
    "Rautatientori\n": {
        "address": "Rautatientori\n",
        "latlng": "60.17111111111111, 24.944027777777777"
    },
    "Plaza_de_Nuestra_Se\u00f1ora_del_Pilar\n": {
        "address": "Plaza+de+Nuestra+Se\u00f1ora+del+Pilar\n",
        "latlng": "41.656388888888884, -0.8786111111111111"
    },
    "Obradoiro_Square\n": {
        "address": "Obradoiro+Square\n",
        "latlng": null
    },
    "Plaza_de_Isabel_II,_Madrid\n": {
        "address": "Plaza+de+Isabel+II,+Madrid\n",
        "latlng": "40.418055555555554, -3.7094444444444448"
    },
    "Piazza_Grande_(Modena)\n": {
        "address": "Piazza+Grande+(Modena)\n",
        "latlng": "44.645925, 10.925613888888888"
    },
    "Palace_Square\n": {
        "address": "Palace+Square\n",
        "latlng": "59.939027777777774, 30.31577777777778"
    },
    "Piazza_Trieste_e_Trento_(Naples)\n": {
        "address": "Piazza+Trieste+e+Trento+(Naples)\n",
        "latlng": "40.8372, 14.2487"
    },
    "Schlo\u00dfplatz,_Dresden\n": {
        "address": "Schlo\u00dfplatz,+Dresden\n",
        "latlng": "51.0537, 13.738399999999999"
    },
    "Platzl_(Munich)\n": {
        "address": "Platzl+(Munich)\n",
        "latlng": null
    },
    "Pla\u00e7a_Nova_(Barcelona)\n": {
        "address": "Pla\u00e7a+Nova+(Barcelona)\n",
        "latlng": "41.38421944444445, 2.175061111111111"
    },
    "Vrijthof_(Maastricht)\n": {
        "address": "Vrijthof+(Maastricht)\n",
        "latlng": "50.84916944444445, 5.6884194444444445"
    },
    "Largo_das_Portas_do_Sol\n": {
        "address": "Largo+das+Portas+do+Sol\n",
        "latlng": "38.712361111111115, -9.130550000000001"
    },
    "Schillerplatz_(Stuttgart)\n": {
        "address": "Schillerplatz+(Stuttgart)\n",
        "latlng": "48.7772, 9.178469444444444"
    },
    "Bahnhofplatz_(Z\u00fcrich)\n": {
        "address": "Bahnhofplatz+(Z\u00fcrich)\n",
        "latlng": "47.3771, 8.540030555555555"
    },
    "Wittenbergplatz_(Berlin-Sch\u00f6neberg)\n": {
        "address": "Wittenbergplatz+(Berlin+Sch\u00f6neberg)\n",
        "latlng": "52.5019, 13.3428"
    },
    "Piazza_dei_Miracoli_(Pisa)\n": {
        "address": "Piazza+dei+Miracoli+(Pisa)\n",
        "latlng": "43.72342777777778, 10.394777777777778"
    },
    "Taksim_Square\n": {
        "address": "Taksim+Square\n",
        "latlng": "41.036944444444444, 28.985833333333336"
    },
    "Piazza_San_Marco_(Venice)\n": {
        "address": "Piazza+San+Marco+(Venice)\n",
        "latlng": "45.434, 12.338000000000001"
    },
    "Piazza_Santa_Maria_Novella\n": {
        "address": "Piazza+Santa+Maria+Novella\n",
        "latlng": "43.7735, 11.2494"
    },
    "Trafalgar_Square\n": {
        "address": "Trafalgar+Square\n",
        "latlng": "51.50805555555556, -0.12805555555555556"
    },
    "Place_des_Guillemins\n": {
        "address": "Place+des+Guillemins\n",
        "latlng": "50.6257, 5.566261111111111"
    },
    "Saint_Peter's_Square\n": {
        "address": "Saint+Peter's+Square\n",
        "latlng": "41.90218333333333, 12.457238888888888"
    },
    "Herald_Square\n": {
        "address": "Herald+Square\n",
        "latlng": "40.750122222222224, -73.98774444444444"
    },
    "Brahma_Jinalaya_Temple,_Lakkundi\n": {
        "address": "Brahma+Jinalaya+Temple,+Lakkundi\n",
        "latlng": "15.3895, 75.71422222222222"
    },
    "Buddha_Tooth_Relic_Temple_and_Museum,_Singapore\n": {
        "address": "Buddha+Tooth+Relic+Temple+and+Museum,+Singapore\n",
        "latlng": "1.28155, 103.844"
    },
    "Tsukiji_Honganji\n": {
        "address": "Tsukiji+Honganji\n",
        "latlng": "35.66638888888889, 139.77222222222224"
    },
    "Lin_Fa_Temple,_Tai_Hang\n": {
        "address": "Lin+Fa+Temple,+Tai+Hang\n",
        "latlng": "22.2794, 114.193"
    },
    "Sri_Dalada_Maligawa\n": {
        "address": "Sri+Dalada+Maligawa\n",
        "latlng": "7.293611111111111, 80.6413888888889"
    },
    "Mahabodhi_Temple\n": {
        "address": "Mahabodhi+Temple\n",
        "latlng": "24.696002777777778, 84.99135833333334"
    },
    "Sanj\u016bsangen-d\u014d\n": {
        "address": "Sanj\u016bsangen+d\u014d\n",
        "latlng": "34.98788611111111, 135.7717138888889"
    },
    "Temple_of_Debod\n": {
        "address": "Temple+of+Debod\n",
        "latlng": "40.424052777777774, -3.717777777777778"
    },
    "Carrawburgh_Mithraeum\n": {
        "address": "Carrawburgh+Mithraeum\n",
        "latlng": "55.034, -2.2225"
    },
    "Temple_of_Hadrian_(Rome)\n": {
        "address": "Temple+of+Hadrian+(Rome)\n",
        "latlng": "41.89972222222222, 12.479444444444445"
    },
    "Temple_of_Bacchus_in_Baalbek\n": {
        "address": "Temple+of+Bacchus+in+Baalbek\n",
        "latlng": "34.00606666666667, 36.203944444444446"
    },
    "Bah\u00e1'\u00ed_House_of_Worship_in_Wilmette\n": {
        "address": "Bah\u00e1'\u00ed+House+of+Worship+in+Wilmette\n",
        "latlng": "42.074444444444445, -87.68444444444445"
    },
    "Shitala_Mata_Temple,_Buttapaldi\n": {
        "address": "Shitala+Mata+Temple,+Buttapaldi\n",
        "latlng": "23.669444444444444, 72.35666666666665"
    },
    "Bamondas_Mookerjee_Kali_Mandir\n": {
        "address": "Bamondas+Mookerjee+Kali+Mandir\n",
        "latlng": "22.627958333333332, 88.37181666666666"
    },
    "Church_of_Saint_Francis,_Quito\n": {
        "address": "Church+of+Saint+Francis,+Quito\n",
        "latlng": "-0.2202777777777778, -78.51555555555555"
    },
    "Hermitage_of_San_Baudelio_de_Berlanga\n": {
        "address": "Hermitage+of+San+Baudelio+de+Berlanga\n",
        "latlng": "41.41833333333333, -2.790277777777778"
    },
    "\u00c9glise_Saint-Saturnin_de_Moulis-en-M\u00e9doc\n": {
        "address": "\u00c9glise+Saint+Saturnin+de+Moulis+en+M\u00e9doc\n",
        "latlng": "45.0592, -0.7709527777777778"
    },
    "Santu\u00e1rio_de_F\u00e1tima\n": {
        "address": "Santu\u00e1rio+de+F\u00e1tima\n",
        "latlng": "39.63242777777778, -8.671538888888888"
    },
    "Church_of_San_Marti\u00f1o_de_Tiobre\n": {
        "address": "Church+of+San+Marti\u00f1o+de+Tiobre\n",
        "latlng": "43.29333333333333, -8.201944444444443"
    },
    "St_Mary_and_St_Peter's_church._Harlaxton\n": {
        "address": "St+Mary+and+St+Peter's+church.+Harlaxton\n",
        "latlng": "52.884, -0.6896972222222222"
    },
    "Church_of_San_Andr\u00e9s,_Madrid\n": {
        "address": "Church+of+San+Andr\u00e9s,+Madrid\n",
        "latlng": "40.41220277777778, -3.711502777777778"
    },
    "\u00c9glise_Notre-Dame-de-l'Assomption_d'Aussois\n": {
        "address": "\u00c9glise+Notre+Dame+de+l'Assomption+d'Aussois\n",
        "latlng": "45.2275, 6.741938888888889"
    },
    "\u00c9glise_Saint-R\u00e9my_de_Ferri\u00e8res-en-Brie\n": {
        "address": "\u00c9glise+Saint+R\u00e9my+de+Ferri\u00e8res+en+Brie\n",
        "latlng": "48.821200000000005, 2.7042305555555557"
    },
    "Hervormde_kerk_(Den_Andel)\n": {
        "address": "Hervormde+kerk+(Den+Andel)\n",
        "latlng": "53.385216666666665, 6.510297222222222"
    },
    "Rajarani_Temple\n": {
        "address": "Rajarani+Temple\n",
        "latlng": "20.238333333333333, 85.83361111111111"
    },
    "San_Domenico_(San_Miniato)\n": {
        "address": "San+Domenico+(San+Miniato)\n",
        "latlng": "43.67964444444444, 10.849125"
    },
    "Sant_Iscle_i_Santa_Vict\u00f2ria_de_B\u00e0scara\n": {
        "address": "Sant+Iscle+i+Santa+Vict\u00f2ria+de+B\u00e0scara\n",
        "latlng": "42.160599999999995, 2.910111111111111"
    },
    "\u00c9glise_Saint-Vigor_de_Marly-le-Roi\n": {
        "address": "\u00c9glise+Saint+Vigor+de+Marly+le+Roi\n",
        "latlng": "48.866480555555555, 2.093"
    },
    "Santi_Andrea_e_Claudio_dei_Borgognoni_(Rome)\n": {
        "address": "Santi+Andrea+e+Claudio+dei+Borgognoni+(Rome)\n",
        "latlng": "41.90230555555556, 12.481527777777778"
    },
    "Iglesia_de_Santa_Mar\u00eda_de_Loreto,_Achao\n": {
        "address": "Iglesia+de+Santa+Mar\u00eda+de+Loreto,+Achao\n",
        "latlng": "-42.471675000000005, -73.48815"
    },
    "Ermita_del_Roc\u00edo\n": {
        "address": "Ermita+del+Roc\u00edo\n",
        "latlng": "37.13070833333333, -6.485022222222223"
    },
    "Iglesia_y_Convento_de_Santa_Teresa,_Cochabamba\n": {
        "address": "Iglesia+y+Convento+de+Santa+Teresa,+Cochabamba\n",
        "latlng": "-17.389569444444444, -66.158275"
    },
    "Monestir_de_Sant_Cugat_del_Vall\u00e8s\n": {
        "address": "Monestir+de+Sant+Cugat+del+Vall\u00e8s\n",
        "latlng": "41.474250000000005, 2.0854611111111114"
    },
    "Our_Lady_of_Annunciation_Parish\n": {
        "address": "Our+Lady+of+Annunciation+Parish\n",
        "latlng": "14.678811111111111, 121.03178055555556"
    },
    "San_Jacopo_in_Acquaviva_(Livorno)\n": {
        "address": "San+Jacopo+in+Acquaviva+(Livorno)\n",
        "latlng": "43.52958888888889, 10.305961111111111"
    },
    "Santissimo_Crocifisso_(San_Miniato)\n": {
        "address": "Santissimo+Crocifisso+(San+Miniato)\n",
        "latlng": "43.67997222222222, 10.852333333333332"
    },
    "Church_of_the_Forty_Martyrs_in_T\u0103m\u0103d\u0103u_Mic,_C\u0103l\u0103ra\u0219i\n": {
        "address": "Church+of+the+Forty+Martyrs+in+T\u0103m\u0103d\u0103u+Mic,+C\u0103l\u0103ra\u0219i\n",
        "latlng": null
    },
    "Iglesia_de_San_Agust\u00edn_(Quito)\n": {
        "address": "Iglesia+de+San+Agust\u00edn+(Quito)\n",
        "latlng": "-0.22038055555555555, -78.51036111111111"
    },
    "St_Michael_&_All_Angels_church,_Taddington\n": {
        "address": "St+Michael+&+All+Angels+church,+Taddington\n",
        "latlng": "53.2373, -1.7897805555555555"
    },
    "Chapel_Pontano_(Naples)\n": {
        "address": "Chapel+Pontano+(Naples)\n",
        "latlng": "40.85015, 14.254438888888888"
    },
    "Kazan_Cathedral\n": {
        "address": "Kazan+Cathedral\n",
        "latlng": "59.93422777777777, 30.324594444444443"
    },
    "Santa_Lucia_(San_Giovanni_Valdarno)\n": {
        "address": "Santa+Lucia+(San+Giovanni+Valdarno)\n",
        "latlng": "43.56359722222222, 11.5311"
    },
    "Abbatiale_Saint-Beno\u00eet_de_Saint-Beno\u00eet-sur-Loire\n": {
        "address": "Abbatiale+Saint+Beno\u00eet+de+Saint+Beno\u00eet+sur+Loire\n",
        "latlng": "47.80954444444444, 2.305883333333333"
    },
    "Bar_Convent,_York\n": {
        "address": "Bar+Convent,+York\n",
        "latlng": "53.9549, -1.0917999999999999"
    },
    "\u00c9glise_Saint-Louis_de_Chambord\n": {
        "address": "\u00c9glise+Saint+Louis+de+Chambord\n",
        "latlng": "47.6149, 1.5165694444444444"
    },
    "Greenwich_Hospital\n": {
        "address": "Greenwich+Hospital\n",
        "latlng": "51.48336388888889, -0.0067333333333333325"
    },
    "Christ_Church,_Bath\n": {
        "address": "Christ+Church,+Bath\n",
        "latlng": "51.38764444444445, -2.3623861111111113"
    },
    "San_Pietro_martire_(Rieti)\n": {
        "address": "San+Pietro+martire+(Rieti)\n",
        "latlng": null
    },
    "Zur_schmerzhaften_Mutter_(Hoetmar)\n": {
        "address": "Zur+schmerzhaften+Mutter+(Hoetmar)\n",
        "latlng": "51.868969444444446, 7.952169444444444"
    },
    "V\u00e5r_Frue_kirke_(Trondheim)\n": {
        "address": "V\u00e5r+Frue+kirke+(Trondheim)\n",
        "latlng": "63.43016111111111, 10.398119444444443"
    },
    "Kronstadt_Naval_Cathedral\n": {
        "address": "Kronstadt+Naval+Cathedral\n",
        "latlng": "59.99161388888889, 29.777791666666666"
    },
    "Rotonda_di_San_Lorenzo_(Mantua)\n": {
        "address": "Rotonda+di+San+Lorenzo+(Mantua)\n",
        "latlng": "45.158125, 10.79475"
    },
    "Monestir_de_Jonqueres\n": {
        "address": "Monestir+de+Jonqueres\n",
        "latlng": "41.38773055555556, 2.1742"
    },
    "San_Francesco_(Trevi,_comune,_Italy)\n": {
        "address": "San+Francesco+(Trevi,+comune,+Italy)\n",
        "latlng": "42.878477777777775, 12.74692222222222"
    },
    "Santo_Stefano_(Volterra)\n": {
        "address": "Santo+Stefano+(Volterra)\n",
        "latlng": "43.40543611111111, 10.853538888888888"
    },
    "Abbaye_de_Saint-Guilhem-le-D\u00e9sert\n": {
        "address": "Abbaye+de+Saint+Guilhem+le+D\u00e9sert\n",
        "latlng": "43.73361111111111, 3.548888888888889"
    },
    "San_Romano_(Ferrara)\n": {
        "address": "San+Romano+(Ferrara)\n",
        "latlng": "44.83496944444445, 11.620197222222222"
    },
    "Iglesia_de_San_Francisco,_Castro\n": {
        "address": "Iglesia+de+San+Francisco,+Castro\n",
        "latlng": "-42.481388888888894, -73.76388888888889"
    },
    "St_John_the_Evangelist_Church,_Bush_End\n": {
        "address": "St+John+the+Evangelist+Church,+Bush+End\n",
        "latlng": "51.85729722222222, 0.24584166666666668"
    },
    "Escomb_Church\n": {
        "address": "Escomb+Church\n",
        "latlng": "54.6661, -1.708061111111111"
    },
    "Frederiksv\u00e6rk_Kirke\n": {
        "address": "Frederiksv\u00e6rk+Kirke\n",
        "latlng": "55.973, 12.0225"
    },
    "St._Gereon_(K\u00f6ln)\n": {
        "address": "St.+Gereon+(K\u00f6ln)\n",
        "latlng": "50.943225, 6.945966666666667"
    },
    "San_Francesco_(Cortona)\n": {
        "address": "San+Francesco+(Cortona)\n",
        "latlng": "43.275238888888886, 11.986849999999999"
    },
    "Temple_de_Lanleff\n": {
        "address": "Temple+de+Lanleff\n",
        "latlng": "48.694975, -3.0459388888888888"
    },
    "Park_Church,_Helensburgh\n": {
        "address": "Park+Church,+Helensburgh\n",
        "latlng": "56.0046, -4.7284500000000005"
    },
    "Biblioteca_P\u00fablica_de_Val\u00e8ncia_(antic_Hospital)\n": {
        "address": "Biblioteca+P\u00fablica+de+Val\u00e8ncia+(antic+Hospital)\n",
        "latlng": "39.470888888888894, -0.3817305555555555"
    },
    "San_Biagio_(Montecatini_Val_di_Cecina)\n": {
        "address": "San+Biagio+(Montecatini+Val+di+Cecina)\n",
        "latlng": "43.39191111111111, 10.751169444444445"
    },
    "Pa\u017eaislis_church\n": {
        "address": "Pa\u017eaislis+church\n",
        "latlng": "54.87638888888889, 24.022222222222222"
    },
    "St_Andrew,_Compton_Bishop\n": {
        "address": "St+Andrew,+Compton+Bishop\n",
        "latlng": "51.294399999999996, -2.867688888888889"
    },
    "Church_of_St._George_in_Topola\n": {
        "address": "Church+of+St.+George+in+Topola\n",
        "latlng": "44.25, 20.666666666666668"
    },
    "\u00c9glise_Saint-Corneille-et-Saint-Cyprien_de_La_Baconni\u00e8re\n": {
        "address": "\u00c9glise+Saint+Corneille+et+Saint+Cyprien+de+La+Baconni\u00e8re\n",
        "latlng": "48.183575, -0.8919083333333333"
    },
    "All_Saints,_Cambridge\n": {
        "address": "All+Saints,+Cambridge\n",
        "latlng": "52.2083, 0.12323055555555555"
    },
    "Baldongan_Church\n": {
        "address": "Baldongan+Church\n",
        "latlng": "53.55316111111111, -6.128774999999999"
    },
    "\u00c9glise_Saint-Pierre_de_Ch\u00e2teloy\n": {
        "address": "\u00c9glise+Saint+Pierre+de+Ch\u00e2teloy\n",
        "latlng": "46.5194, 2.6994694444444445"
    },
    "Urnes_stavkirke\n": {
        "address": "Urnes+stavkirke\n",
        "latlng": "61.29805555555556, 7.3225"
    },
    "\u00c9glise_Saint-Marien_de_M\u00e9zilles\n": {
        "address": "\u00c9glise+Saint+Marien+de+M\u00e9zilles\n",
        "latlng": "47.701100000000004, 3.1723"
    },
    "\u00c9glise_de_la_R\u00e9al\n": {
        "address": "\u00c9glise+de+la+R\u00e9al\n",
        "latlng": "42.696799999999996, 2.8973999999999998"
    },
    "Santi_Niccol\u00f2_e_Cataldo_(Lecce)\n": {
        "address": "Santi+Niccol\u00f2+e+Cataldo+(Lecce)\n",
        "latlng": "40.36236666666667, 18.16513611111111"
    },
    "Santa_Maria_foris_portas_in_Castelseprio\n": {
        "address": "Santa+Maria+foris+portas+in+Castelseprio\n",
        "latlng": "45.72983611111111, 8.855833333333333"
    },
    "Sant'Agostino_(San_Gimignano)\n": {
        "address": "Sant'Agostino+(San+Gimignano)\n",
        "latlng": "43.47070277777778, 11.041705555555556"
    },
    "Rock_of_Cashel\n": {
        "address": "Rock+of+Cashel\n",
        "latlng": "52.519999999999996, -7.89"
    },
    "P\u00f6ide_Church\n": {
        "address": "P\u00f6ide+Church\n",
        "latlng": "58.51111111111111, 23.048055555555557"
    },
    "Monestir_de_Sant_Joan_les_Fonts\n": {
        "address": "Monestir+de+Sant+Joan+les+Fonts\n",
        "latlng": "42.2175, 2.515"
    },
    "Holy_Trinity_Church,_Rothwell,_West_Yorkshire\n": {
        "address": "Holy+Trinity+Church,+Rothwell,+West+Yorkshire\n",
        "latlng": "53.750030555555554, -1.4810916666666667"
    },
    "\u00c9glise_Saint-Martin_de_R\u00e9ville\n": {
        "address": "\u00c9glise+Saint+Martin+de+R\u00e9ville\n",
        "latlng": "49.6192, -1.258888888888889"
    },
    "All_Saints_Anglican_Church,_Dunedin\n": {
        "address": "All+Saints+Anglican+Church,+Dunedin\n",
        "latlng": "-45.862300000000005, 170.5141"
    },
    "San_Francesco_(Palazzo_Ducale,_Sassuolo)\n": {
        "address": "San+Francesco+(Palazzo+Ducale,+Sassuolo)\n",
        "latlng": "44.54255555555555, 10.780583333333334"
    },
    "Santuari_de_Sant_Josep_de_la_Muntanya\n": {
        "address": "Santuari+de+Sant+Josep+de+la+Muntanya\n",
        "latlng": "41.410555555555554, 2.153611111111111"
    },
    "Santa_Verdiana_(Castelfiorentino)\n": {
        "address": "Santa+Verdiana+(Castelfiorentino)\n",
        "latlng": "43.60293888888889, 10.972011111111112"
    },
    "Chennakesava_Temple,_Belur\n": {
        "address": "Chennakesava+Temple,+Belur\n",
        "latlng": "13.162861111111111, 75.86055555555555"
    },
    "Madurai_Meenakshi_Temple\n": {
        "address": "Madurai+Meenakshi+Temple\n",
        "latlng": "9.919722222222221, 78.11944444444444"
    },
    "Santuario_della_Santissima_Annunziata_(Gaeta)\n": {
        "address": "Santuario+della+Santissima+Annunziata+(Gaeta)\n",
        "latlng": "41.211961111111115, 13.581330555555555"
    },
    "Hoysaleswara_Temple\n": {
        "address": "Hoysaleswara+Temple\n",
        "latlng": "13.213194444444444, 75.995"
    },
    "Santuario_di_San_Pellegrino_in_Alpe\n": {
        "address": "Santuario+di+San+Pellegrino+in+Alpe\n",
        "latlng": "44.189499999999995, 10.480569444444445"
    },
    "Santissimo_Crocifisso_(Borgo_a_Buggiano)\n": {
        "address": "Santissimo+Crocifisso+(Borgo+a+Buggiano)\n",
        "latlng": "43.879583333333336, 10.728002777777778"
    },
    "Sun_Temple,_Modhera\n": {
        "address": "Sun+Temple,+Modhera\n",
        "latlng": "23.583805555555553, 72.13268333333333"
    },
    "Madonna_di_San_Pietro\n": {
        "address": "Madonna+di+San+Pietro\n",
        "latlng": "42.85105, 11.682169444444444"
    },
    "Badami_Cave_Temples\n": {
        "address": "Badami+Cave+Temples\n",
        "latlng": "15.918333333333333, 75.685"
    },
    "House_of_Saint_Catherine_of_Siena\n": {
        "address": "House+of+Saint+Catherine+of+Siena\n",
        "latlng": "43.319861111111116, 11.328288888888888"
    },
    "Kwong_Fook_I_Tsz\n": {
        "address": "Kwong+Fook+I+Tsz\n",
        "latlng": "22.285, 114.14750000000001"
    },
    "Bhandasar_Jain_Temple\n": {
        "address": "Bhandasar+Jain+Temple\n",
        "latlng": "28.0047, 73.30065555555555"
    },
    "Basilica_of_the_National_Shrine_of_the_Immaculate_Conception\n": {
        "address": "Basilica+of+the+National+Shrine+of+the+Immaculate+Conception\n",
        "latlng": "38.93333333333333, -77.00055555555555"
    },
    "Church_of_San_Hipolito,_Paseo_de_la_Reforma\n": {
        "address": "Church+of+San+Hipolito,+Paseo+de+la+Reforma\n",
        "latlng": "19.438194444444445, -99.14680555555556"
    },
    "Temple_of_Apollo_in_Didyma\n": {
        "address": "Temple+of+Apollo+in+Didyma\n",
        "latlng": "37.385, 27.25638888888889"
    },
    "Church_of_Nuestra_Se\u00f1ora_del_Carmen_(C\u00f3rdoba)\n": {
        "address": "Church+of+Nuestra+Se\u00f1ora+del+Carmen+(C\u00f3rdoba)\n",
        "latlng": "37.88625, -4.763527777777778"
    },
    "Agia_Aikaterini_(Athens)\n": {
        "address": "Agia+Aikaterini+(Athens)\n",
        "latlng": "37.971111111111114, 23.73097222222222"
    },
    "Templo_Expiatorio_del_Sant\u00edsimo_Sacramento,_Guadalajara\n": {
        "address": "Templo+Expiatorio+del+Sant\u00edsimo+Sacramento,+Guadalajara\n",
        "latlng": "20.67343888888889, -103.3590611111111"
    },
    "San_Francisco_church,_Puebla\n": {
        "address": "San+Francisco+church,+Puebla\n",
        "latlng": "19.044722222222223, -98.18944444444445"
    },
    "Temple_of_Baal_in_Palmyra\n": {
        "address": "Temple+of+Baal+in+Palmyra\n",
        "latlng": "34.547, 38.274"
    },
    "Chennakesava_Temple,_Somanathapura\n": {
        "address": "Chennakesava+Temple,+Somanathapura\n",
        "latlng": "12.275736111111112, 76.88155555555555"
    },
    "Igreja_de_S\u00e3o_Louren\u00e7o_(Macau)\n": {
        "address": "Igreja+de+S\u00e3o+Louren\u00e7o+(Macau)\n",
        "latlng": "22.190694444444446, 113.53680555555556"
    },
    "Temple_of_Roma_and_Augustus_(Ankara)\n": {
        "address": "Temple+of+Roma+and+Augustus+(Ankara)\n",
        "latlng": "39.944336111111106, 32.858266666666665"
    },
    "Templo_de_San_Antonio,_Aguascalientes\n": {
        "address": "Templo+de+San+Antonio,+Aguascalientes\n",
        "latlng": "21.885619444444444, -102.291775"
    },
    "Mosteiro_de_Santa_Cruz\n": {
        "address": "Mosteiro+de+Santa+Cruz\n",
        "latlng": "40.21094444444445, -8.428761111111111"
    },
    "Hong_Kong_Central_Hospital\n": {
        "address": "Hong+Kong+Central+Hospital\n",
        "latlng": "22.27980277777778, 114.1563"
    },
    "Ajuntament_de_Val\u00e8ncia\n": {
        "address": "Ajuntament+de+Val\u00e8ncia\n",
        "latlng": "39.469836111111114, -0.3769888888888889"
    },
    "Town_hall_of_Pamplona\n": {
        "address": "Town+hall+of+Pamplona\n",
        "latlng": "42.81833055555556, -1.6441694444444444"
    },
    "Ajuntament_de_l'Hospitalet_de_Llobregat\n": {
        "address": "Ajuntament+de+l'Hospitalet+de+Llobregat\n",
        "latlng": "41.3594, 2.0996305555555557"
    },
    "Casas_Consistoriales_Altas,_Baeza\n": {
        "address": "Casas+Consistoriales+Altas,+Baeza\n",
        "latlng": "37.99033333333333, -3.4686805555555558"
    },
    "Ayuntamiento_de_Tarazona\n": {
        "address": "Ayuntamiento+de+Tarazona\n",
        "latlng": "41.90516111111111, -1.727352777777778"
    },
    "Town_hall_of_Zaragoza\n": {
        "address": "Town+hall+of+Zaragoza\n",
        "latlng": "41.65611111111111, -0.8775000000000001"
    },
    "Casa_de_la_Ciutat_(Barcelona)\n": {
        "address": "Casa+de+la+Ciutat+(Barcelona)\n",
        "latlng": "41.3822, 2.1774999999999998"
    },
    "Sai_Ying_Pun_Community_Complex\n": {
        "address": "Sai+Ying+Pun+Community+Complex\n",
        "latlng": "22.2849, 114.144"
    },
    "Dearborn_County_Courthouse\n": {
        "address": "Dearborn+County+Courthouse\n",
        "latlng": "39.09111111111111, -84.84972222222221"
    },
    "Baclaran_Church\n": {
        "address": "Baclaran+Church\n",
        "latlng": "14.531111111111112, 120.995"
    },
    "Danvers_State_Hospital\n": {
        "address": "Danvers+State+Hospital\n",
        "latlng": "42.5812, -70.9744"
    },
    "Oratorio_de_Amaxalco\n": {
        "address": "Oratorio+de+Amaxalco\n",
        "latlng": null
    },
    "Santa_Maria_della_Scala_Hospital\n": {
        "address": "Santa+Maria+della+Scala+Hospital\n",
        "latlng": "43.31693611111111, 11.328891666666667"
    },
    "Durga_Temple,_Aihole\n": {
        "address": "Durga+Temple,+Aihole\n",
        "latlng": "16.020666666666667, 75.88194444444444"
    },
    "H\u00f4tel-Dieu_de_Beaune\n": {
        "address": "H\u00f4tel+Dieu+de+Beaune\n",
        "latlng": "47.02194444444444, 4.836666666666666"
    },
    "Arya_Diwaker_tempel\n": {
        "address": "Arya+Diwaker+tempel\n",
        "latlng": "5.819630555555555, -55.17488888888889"
    },
    "Town_hall_of_C\u00e1diz\n": {
        "address": "Town+hall+of+C\u00e1diz\n",
        "latlng": "36.52953888888889, -6.2930166666666665"
    },
    "Decatur_County_Courthouse_(Indiana)\n": {
        "address": "Decatur+County+Courthouse+(Indiana)\n",
        "latlng": "39.33710555555556, -85.48345277777779"
    },
    "Melilla_town_hall\n": {
        "address": "Melilla+town+hall\n",
        "latlng": "35.29227777777778, -2.936916666666667"
    },
    "Town_hall_of_\u00c1vila\n": {
        "address": "Town+hall+of+\u00c1vila\n",
        "latlng": "40.65673888888889, -4.700094444444445"
    },
    "Hospital_de_Tavera\n": {
        "address": "Hospital+de+Tavera\n",
        "latlng": "39.86504166666667, -4.024422222222222"
    },
    "H\u00f4tel_de_Ville_de_Gen\u00e8ve\n": {
        "address": "H\u00f4tel+de+Ville+de+Gen\u00e8ve\n",
        "latlng": "46.20083888888889, 6.146583333333334"
    },
    "Legislative_Palace_of_Ecuador,_Quito\n": {
        "address": "Legislative+Palace+of+Ecuador,+Quito\n",
        "latlng": "-0.21302222222222222, -78.49953888888889"
    },
    "Glasgow_City_Chambers\n": {
        "address": "Glasgow+City+Chambers\n",
        "latlng": "55.86098888888889, -4.248669444444444"
    },
    "Museu_Nacional_do_Traje\n": {
        "address": "Museu+Nacional+do+Traje\n",
        "latlng": "38.77516388888889, -9.164986111111112"
    },
    "Nagoya_Civic_Assembly_Hall\n": {
        "address": "Nagoya+Civic+Assembly+Hall\n",
        "latlng": "35.156666666666666, 136.91916666666665"
    },
    "H\u00f4tel_de_Ville_de_La_Rochelle\n": {
        "address": "H\u00f4tel+de+Ville+de+La+Rochelle\n",
        "latlng": "46.1596, -1.1512499999999999"
    },
    "H\u00f4tel_de_ville_de_Rennes\n": {
        "address": "H\u00f4tel+de+ville+de+Rennes\n",
        "latlng": "48.1114, -1.68"
    },
    "H\u00f4tel_de_Ville_de_Paris\n": {
        "address": "H\u00f4tel+de+Ville+de+Paris\n",
        "latlng": "48.85638888888889, 2.352222222222222"
    },
    "Town_hall_of_Neuilly-sur-Seine\n": {
        "address": "Town+hall+of+Neuilly+sur+Seine\n",
        "latlng": "48.8848, 2.2697"
    },
    "Convent_of_San_Gil_(Toledo)\n": {
        "address": "Convent+of+San+Gil+(Toledo)\n",
        "latlng": "39.853886111111116, -4.0286888888888885"
    },
    "Manitoba_Legislative_Building\n": {
        "address": "Manitoba+Legislative+Building\n",
        "latlng": "49.884394444444446, -97.14691666666667"
    },
    "Palace_of_the_Parliament_of_Catalonia\n": {
        "address": "Palace+of+the+Parliament+of+Catalonia\n",
        "latlng": "41.388, 2.1889805555555553"
    },
    "European_Parliament,_Strasbourg\n": {
        "address": "European+Parliament,+Strasbourg\n",
        "latlng": "48.5974, 7.769580555555556"
    },
    "Hungarian_Parliament_Building\n": {
        "address": "Hungarian+Parliament+Building\n",
        "latlng": "47.50694444444444, 19.045555555555556"
    },
    "Saints'_Constantine_and_Helena_church_in_B\u0103rc\u0103ne\u0219ti,_Ialomi\u021ba\n": {
        "address": "Saints'+Constantine+and+Helena+church+in+B\u0103rc\u0103ne\u0219ti,+Ialomi\u021ba\n",
        "latlng": null
    },
    "Palace_of_Westminster\n": {
        "address": "Palace+of+Westminster\n",
        "latlng": "51.49944444444444, -0.12416666666666668"
    },
    "Stadtschloss_Wiesbaden\n": {
        "address": "Stadtschloss+Wiesbaden\n",
        "latlng": null
    },
    "Austrian_Parliament_Building\n": {
        "address": "Austrian+Parliament+Building\n",
        "latlng": "48.20805, 16.358700000000002"
    },
    "\u00c9glise_Saint-Laurent_de_Bornambusc\n": {
        "address": "\u00c9glise+Saint+Laurent+de+Bornambusc\n",
        "latlng": "49.62693888888889, 0.35459999999999997"
    },
    "Church_of_Santa_Victoria,_C\u00f3rdoba\n": {
        "address": "Church+of+Santa+Victoria,+C\u00f3rdoba\n",
        "latlng": null
    },
    "Od\u00e9on_antique_de_Lyon\n": {
        "address": "Od\u00e9on+antique+de+Lyon\n",
        "latlng": "45.75861111111111, 4.819722222222222"
    },
    "Trump_International_Hotel_and_Tower_(Chicago)\n": {
        "address": "Trump+International+Hotel+and+Tower+(Chicago)\n",
        "latlng": "41.8891, -87.62667222222221"
    },
    "\u00c9glise_Saint-Loup,_Namur\n": {
        "address": "\u00c9glise+Saint+Loup,+Namur\n",
        "latlng": "50.46401111111111, 4.863269444444444"
    },
    "Wetherby_Town_Hall\n": {
        "address": "Wetherby+Town+Hall\n",
        "latlng": "53.92834722222222, -1.3865944444444445"
    },
    "Church_of_San_Pedro,_Arcos_de_la_Frontera\n": {
        "address": "Church+of+San+Pedro,+Arcos+de+la+Frontera\n",
        "latlng": "36.746947222222225, -5.804216666666666"
    },
    "St._Paul's_Cathedral_(London,_Ontario)\n": {
        "address": "St.+Paul's+Cathedral+(London,+Ontario)\n",
        "latlng": "42.9858, -81.2496"
    },
    "City_hall,_Rotterdam\n": {
        "address": "City+hall,+Rotterdam\n",
        "latlng": "51.922777777777775, 4.479722222222223"
    },
    "Cathedral_of_San_Carlos_Borromeo_(Monterey,_California)\n": {
        "address": "Cathedral+of+San+Carlos+Borromeo+(Monterey,+California)\n",
        "latlng": "36.59527777777778, -121.88916666666667"
    },
    "Sainte-Chapelle_de_Vincennes\n": {
        "address": "Sainte+Chapelle+de+Vincennes\n",
        "latlng": "48.842333333333336, 2.4364444444444446"
    },
    "Capilla_del_Obispo,_Madrid\n": {
        "address": "Capilla+del+Obispo,+Madrid\n",
        "latlng": "40.41253333333333, -3.7116305555555558"
    },
    "San_Giovanni_Battista_(Busto_Arsizio)\n": {
        "address": "San+Giovanni+Battista+(Busto+Arsizio)\n",
        "latlng": "45.61205, 8.852369444444443"
    },
    "Cathedral_of_Dubrovnik\n": {
        "address": "Cathedral+of+Dubrovnik\n",
        "latlng": "42.6399, 18.110400000000002"
    },
    "Column_of_Alexander_I\n": {
        "address": "Column+of+Alexander+I\n",
        "latlng": "59.939166666666665, 30.315833333333334"
    },
    "Wroc\u0142aw_Town_Hall\n": {
        "address": "Wroc\u0142aw+Town+Hall\n",
        "latlng": "51.109611111111114, 17.031816666666664"
    },
    "Four_Seasons_Hotel_Hong_Kong\n": {
        "address": "Four+Seasons+Hotel+Hong+Kong\n",
        "latlng": "22.28663888888889, 114.15660000000001"
    },
    "Church_of_the_Saviour_on_the_Blood\n": {
        "address": "Church+of+the+Saviour+on+the+Blood\n",
        "latlng": "59.94, 30.328611111111112"
    },
    "Marshall_Field_&_Company_Building\n": {
        "address": "Marshall+Field+&+Company+Building\n",
        "latlng": "41.883697222222224, -87.62696944444444"
    },
    "Guildhall,_London\n": {
        "address": "Guildhall,+London\n",
        "latlng": "51.51589444444444, -0.09179166666666666"
    },
    "Senedd_(building)\n": {
        "address": "Senedd+(building)\n",
        "latlng": "51.4639, -3.1620805555555553"
    },
    "Palast_der_Republik\n": {
        "address": "Palast+der+Republik\n",
        "latlng": "52.5175, 13.4025"
    },
    "Legislative_Yuan\n": {
        "address": "Legislative+Yuan\n",
        "latlng": null
    },
    "St_Salvator's_Chapel,_St_Andrews\n": {
        "address": "St+Salvator's+Chapel,+St+Andrews\n",
        "latlng": "56.3414, -2.7942888888888886"
    },
    "Peterborough_Cathedral\n": {
        "address": "Peterborough+Cathedral\n",
        "latlng": "52.572500000000005, -0.23944444444444446"
    },
    "Praalgraf_van_Fran\u00e7ois_van_Bredehoff\n": {
        "address": "Praalgraf+van+Fran\u00e7ois+van+Bredehoff\n",
        "latlng": null
    },
    "Sacra_di_San_Michele\n": {
        "address": "Sacra+di+San+Michele\n",
        "latlng": "45.09778611111111, 7.343283333333333"
    },
    "Camposanto_(Pisa)\n": {
        "address": "Camposanto+(Pisa)\n",
        "latlng": null
    },
    "Tsaar_Peterhuisje\n": {
        "address": "Tsaar+Peterhuisje\n",
        "latlng": "52.43731944444444, 4.823411111111111"
    },
    "Pushkin_Museum\n": {
        "address": "Pushkin+Museum\n",
        "latlng": "55.7475, 37.605000000000004"
    },
    "COCO_Park,_Shenzhen\n": {
        "address": "COCO+Park,+Shenzhen\n",
        "latlng": null
    },
    "San_Lorenzo_(Genoa)\n": {
        "address": "San+Lorenzo+(Genoa)\n",
        "latlng": "44.40766111111111, 8.93135"
    },
    "Cathedral_of_Solsona\n": {
        "address": "Cathedral+of+Solsona\n",
        "latlng": "41.994166666666665, 1.5194444444444444"
    },
    "Monumento_al_Marinaio_d'Italia\n": {
        "address": "Monumento+al+Marinaio+d'Italia\n",
        "latlng": "40.64453611111111, 17.94706111111111"
    },
    "Arco_de_Santa_Mar\u00eda\n": {
        "address": "Arco+de+Santa+Mar\u00eda\n",
        "latlng": "42.33972222222222, -3.7038888888888892"
    },
    "M\u00e5nstorps_gavlar\n": {
        "address": "M\u00e5nstorps+gavlar\n",
        "latlng": "55.47833333333333, 13.136944444444444"
    },
    "Treasury_of_Atreus\n": {
        "address": "Treasury+of+Atreus\n",
        "latlng": "37.72680555555556, 22.75360277777778"
    },
    "Tomb_of_Aegisthus\n": {
        "address": "Tomb+of+Aegisthus\n",
        "latlng": "37.73075, 22.75563888888889"
    },
    "Tomb_of_Pennut\n": {
        "address": "Tomb+of+Pennut\n",
        "latlng": "22.73738888888889, 32.26119444444444"
    },
    "Garfield_Monument_(Cleveland)\n": {
        "address": "Garfield+Monument+(Cleveland)\n",
        "latlng": "41.51, -81.59138888888889"
    },
    "Museum_of_Martyrs\n": {
        "address": "Museum+of+Martyrs\n",
        "latlng": "41.31883888888889, 19.444983333333333"
    },
    "Montecitorio_obelisk\n": {
        "address": "Montecitorio+obelisk\n",
        "latlng": "41.9006, 12.4787"
    },
    "Hoshang's_Tomb\n": {
        "address": "Hoshang's+Tomb\n",
        "latlng": "22.348391666666664, 75.39653333333334"
    },
    "Ibrahim_Rouza\n": {
        "address": "Ibrahim+Rouza\n",
        "latlng": "16.826944444444443, 75.70194444444445"
    },
    "Pantheon_of_Illustrious_Men\n": {
        "address": "Pantheon+of+Illustrious+Men\n",
        "latlng": "40.40606388888889, -3.6836222222222226"
    },
    "Tomb_of_Shah_Rukn-e-Alam\n": {
        "address": "Tomb+of+Shah+Rukn+e+Alam\n",
        "latlng": "30.198900000000002, 71.4714"
    },
    "Cripta_de_la_Col\u00f2nia_G\u00fcell\n": {
        "address": "Cripta+de+la+Col\u00f2nia+G\u00fcell\n",
        "latlng": "41.363797222222225, 2.0278472222222224"
    },
    "La_Conocchia_(Curti)\n": {
        "address": "La+Conocchia+(Curti)\n",
        "latlng": "41.0778, 14.2786"
    },
    "Igreja_de_Santa_Engr\u00e1cia\n": {
        "address": "Igreja+de+Santa+Engr\u00e1cia\n",
        "latlng": "38.715, -9.125"
    },
    "Pakhlavan_Mahmoud_Mausoleum\n": {
        "address": "Pakhlavan+Mahmoud+Mausoleum\n",
        "latlng": "41.3771, 60.359500000000004"
    },
    "Monastery_of_Santa_Mar\u00eda_la_Real_de_N\u00e1jera\n": {
        "address": "Monastery+of+Santa+Mar\u00eda+la+Real+de+N\u00e1jera\n",
        "latlng": "42.41611111111111, -2.735638888888889"
    },
    "Mausoleum_of_Theodoric_(Ravenna)\n": {
        "address": "Mausoleum+of+Theodoric+(Ravenna)\n",
        "latlng": null
    },
    "Dante's_tomb_(Ravenna)\n": {
        "address": "Dante's+tomb+(Ravenna)\n",
        "latlng": "44.41615, 12.200933333333333"
    },
    "Central_Library_(Indianapolis,_Indiana)\n": {
        "address": "Central+Library+(Indianapolis,+Indiana)\n",
        "latlng": "39.778055555555554, -86.15694444444445"
    },
    "Tomb_of_Asif_Khan\n": {
        "address": "Tomb+of+Asif+Khan\n",
        "latlng": "31.6225, 74.2975"
    },
    "Library_of_Birmingham\n": {
        "address": "Library+of+Birmingham\n",
        "latlng": "52.479800000000004, -1.9084999999999999"
    },
    "Escuelas_Mayores_(Universidad_de_Salamanca)\n": {
        "address": "Escuelas+Mayores+(Universidad+de+Salamanca)\n",
        "latlng": "40.96143888888889, -5.667261111111111"
    },
    "New_York_Public_Library_Main_Branch\n": {
        "address": "New+York+Public+Library+Main+Branch\n",
        "latlng": "40.75333333333333, -73.98222222222222"
    },
    "Paraninfo_de_la_Universidad_de_Zaragoza\n": {
        "address": "Paraninfo+de+la+Universidad+de+Zaragoza\n",
        "latlng": "41.6472, -0.8863888888888889"
    },